timestamp(ms),GPS[0].Lat,GPS[0].Lng,GPS[0].Alt,GPS[0].Spd,GPS[0].VZ,GPS[0].Yaw,IMU[0].GyrX,IMU[0].GyrY,IMU[0].GyrZ,IMU[0].AccX,IMU[0].AccY,IMU[0].AccZ,ORGN[0].Lat,ORGN[0].Lng,ORGN[0].Alt,XKF1[0].PN,XKF1[0].PE,XKF1[0].PD,XKF1[0].VN,XKF1[0].VE,XKF1[0].VD,XKF1[0].Roll,XKF1[0].Pitch,XKF1[0].Yaw,XKF1[0].GX,XKF1[0].GY,XKF1[0].GZ
81640.831,NaN,NaN,NaN,NaN,NaN,NaN,NaN,NaN,NaN,NaN,NaN,NaN,NaN,NaN,NaN,NaN,NaN,NaN,NaN,NaN,NaN,NaN,NaN,NaN,NaN,NaN,NaN
81740.831,410998575,290255355,82.44,0.05300000309944153,0.036000002175569534,0,0.000008171433364623226,-0.00022573370370082557,-0.0016079321503639221,0.16284340620040894,-0.00043660233495756984,-9.646169662475586,NaN,NaN,NaN,NaN,NaN,NaN,NaN,NaN,NaN,NaN,NaN,NaN,NaN,NaN,NaN
81840.831,410998575,290255355,82.44,0.05300000309944153,0.036000002175569534,0,0.000008171433364623226,-0.00022573370370082557,-0.0016079321503639221,0.16284340620040894,-0.00043660233495756984,-9.646169662475586,NaN,NaN,NaN,NaN,NaN,NaN,NaN,NaN,NaN,NaN,NaN,NaN,NaN,NaN,NaN
81940.831,410998575,290255355,82.44,0.05300000309944153,0.036000002175569534,0,0.000008171433364623226,-0.00022573370370082557,-0.0016079321503639221,0.16284340620040894,-0.00043660233495756984,-9.646169662475586,NaN,NaN,NaN,NaN,NaN,NaN,NaN,NaN,NaN,NaN,NaN,NaN,NaN,NaN,NaN
82040.831,410998575,290255355,82.44,0.05300000309944153,0.036000002175569534,0,0.000008171433364623226,-0.00022573370370082557,-0.0016079321503639221,0.16284340620040894,-0.00043660233495756984,-9.646169662475586,NaN,NaN,NaN,NaN,NaN,NaN,NaN,NaN,NaN,NaN,NaN,NaN,NaN,NaN,NaN
82140.831,410998575,290255355,82.44,0.05300000309944153,0.036000002175569534,0,0.000008171433364623226,-0.00022573370370082557,-0.0016079321503639221,0.16284340620040894,-0.00043660233495756984,-9.646169662475586,NaN,NaN,NaN,NaN,NaN,NaN,NaN,NaN,NaN,NaN,NaN,NaN,NaN,NaN,NaN
82240.831,410998575,290255355,82.44,0.05300000309944153,0.036000002175569534,0,-0.000020467063222895268,-0.0013449154794216156,0.000389947701478377,0.17507056891918182,-0.001018813345581293,-9.679952621459961,NaN,NaN,NaN,NaN,NaN,NaN,NaN,NaN,NaN,NaN,NaN,NaN,NaN,NaN,NaN
82340.831,410998573,290255354,82.44,0.026000000536441803,-0.04400000348687172,0,0.0006993584684096277,-0.0000010176780733672786,-0.00010183617996517569,0.16825085878372192,-0.005452493205666542,-9.668866157531738,NaN,NaN,NaN,NaN,NaN,NaN,NaN,NaN,NaN,NaN,NaN,NaN,NaN,NaN,NaN
82440.831,410998571,290255354,82.45,0.018000001087784767,-0.018000001087784767,0,-0.0010761255398392677,0.00020616552501451224,-0.002701706485822797,0.16705715656280518,-0.014024526812136173,-9.659406661987305,NaN,NaN,NaN,NaN,NaN,NaN,NaN,NaN,NaN,NaN,NaN,NaN,NaN,NaN,NaN
82540.831,410998571,290255354,82.45,0.018000001087784767,-0.018000001087784767,0,-0.0005394117324613035,-0.00008048526797210798,-0.0011935585644096136,0.16129833459854126,0.003589468076825142,-9.661003112792969,NaN,NaN,NaN,-1.7393697500228882,-1.110182285308838,0.2914030849933624,-0.01975145936012268,-0.005472495220601559,0.000016511388821527362,-1.56,1.26,6.41,-0.02,0.01,-0.04
82640.831,410998569,290255354,82.45,0.029000001028180122,0.024000000208616257,0,0.0003134594007860869,0.0006278164801187813,0.0005422453978098931,0.17583882808685303,-0.0043304418213665485,-9.681356430053711,NaN,NaN,NaN,-1.7512527704238892,-1.114173173904419,0.2901129126548767,-0.01578005962073803,-0.008971074596047401,-0.0009362132987007499,-1.56,1.26,6.41,-0.02,0.01,-0.04
82740.831,410998569,290255354,82.45,0.029000001028180122,0.024000000208616257,0,0.0006437745760194957,0.0005714429426006973,-0.001013901666738093,0.16981825232505798,-0.0063406177796423435,-9.662642478942871,NaN,NaN,NaN,-1.7598739862442017,-1.1177479028701782,0.2891249656677246,-0.011160092428326607,-0.011558640748262405,-0.0026633148081600666,-1.56,1.26,6.4,-0.02,0.01,-0.04
82840.831,410998567,290255355,82.45,0.039000000804662704,0.02200000174343586,0,0.0006322605186142027,-0.0001217146054841578,-0.00026459182845428586,0.17130030691623688,0.000017136411770479754,-9.65310001373291,NaN,NaN,NaN,-1.7717374563217163,-1.1195836067199707,0.289058655500412,-0.00693757738918066,-0.009884531609714031,-0.0036090794019401073,-1.56,1.27,6.4,-0.02,0.01,-0.04
82940.831,410998567,290255355,82.45,0.039000000804662704,0.02200000174343586,0,-0.00015734117187093933,-0.00020900012168567628,-0.0014810437569394708,0.16886523365974426,-0.0029016858898103237,-9.679793357849121,NaN,NaN,NaN,-1.7797114849090576,-1.1203019618988037,0.28860244154930115,-0.0031675694044679403,-0.007777969818562269,-0.004788926336914301,-1.56,1.27,6.4,-0.02,0.01,-0.04
83040.831,410998565,290255355,82.44,0.039000000804662704,0.08000000566244125,0,-0.0008707836968824267,0.00027156955911777914,0.0006720382953062654,0.1688753217458725,0.0033350284211337566,-9.675482749938965,NaN,NaN,NaN,-1.7892931699752808,-1.1207236051559448,0.2882852554321289,0.002435430884361267,-0.005445342510938644,-0.005932331085205078,-1.56,1.27,6.39,-0.02,0.01,-0.04
83140.831,410998565,290255355,82.44,0.039000000804662704,0.08000000566244125,0,-0.002385936211794615,0.000017172767911688425,-0.0007213386124931276,0.16820193827152252,-0.005898039322346449,-9.667176246643066,NaN,NaN,NaN,-1.79547119140625,-1.1207454204559326,0.2880227863788605,0.008243494667112827,-0.004022161476314068,-0.006525930017232895,-1.56,1.27,6.39,-0.02,0.01,-0.04
83240.831,410998564,290255355,82.42,0.018000001087784767,0.03100000135600567,0,0.00017153787484858185,0.0011851344024762511,-0.0010816038120537996,0.16766619682312012,0.006961253471672535,-9.682845115661621,NaN,NaN,NaN,-1.8070940971374512,-1.1229822635650635,0.29081302881240845,0.009926099330186844,-0.005816274788230658,-0.00523046450689435,-1.56,1.28,6.4,-0.02,0.01,-0.04
83340.831,410998564,290255355,82.42,0.018000001087784767,0.03100000135600567,0,-0.0007653539068996906,-0.001087592332623899,-0.0001630587939871475,0.16727997362613678,0.0008786356193013489,-9.670068740844727,NaN,NaN,NaN,-1.8152194023132324,-1.1253451108932495,0.29307007789611816,0.01152015570551157,-0.00802161917090416,-0.004577498883008957,-1.56,1.28,6.4,-0.02,0.01,-0.04
83440.831,410998562,290255355,82.43,0.0430000014603138,0.09600000083446503,0,-0.00152579287532717,-0.0015064678154885769,-0.0007956619374454021,0.1694079041481018,-0.0014913281193003058,-9.670563697814941,NaN,NaN,NaN,-1.8280112743377686,-1.126204490661621,0.2956543266773224,0.011427550576627254,-0.006761359982192516,-0.0037493188865482807,-1.56,1.28,6.41,-0.02,0.01,-0.04
83540.831,410998562,290255355,82.43,0.0430000014603138,0.09600000083446503,0,-0.0013360626762732863,-0.0011897550430148838,-0.0007528651622124016,0.17370200157165527,0.01028150599449873,-9.682446479797363,NaN,NaN,NaN,-1.8366007804870605,-1.1266672611236572,0.2967045307159424,0.01214073970913887,-0.0056419880129396915,-0.0036784892436116934,-1.56,1.28,6.41,-0.02,0.01,-0.04
83640.831,410998560,290255356,82.43,0.07300000637769699,0.04100000113248825,0,-0.0016280906274914742,-0.00045449921162799,-0.0003315399226266891,0.16669586300849915,-0.008279996924102306,-9.67669677734375,NaN,NaN,NaN,-1.8471790552139282,-1.1274038553237915,0.3016963303089142,0.01542849000543356,-0.005286457948386669,-0.0017575775273144247,-1.56,1.28,6.41,-0.02,0.01,-0.04
83740.831,410998560,290255356,82.43,0.07300000637769699,0.04100000113248825,0,-0.0012916943524032831,-0.0005938955000601709,0.00043681441457010806,0.17045339941978455,-0.0037596283946186304,-9.672046661376953,NaN,NaN,NaN,-1.8535650968551636,-1.1279067993164062,0.30528464913368225,0.01915564574301243,-0.004803996067494154,-0.001464641303755343,-1.56,1.28,6.41,-0.02,0.01,-0.04
83840.831,410998558,290255357,82.44,0.04000000283122063,0.023000001907348633,0,-0.0007216986850835383,0.0004813394625671208,-0.00030148381483741105,0.17938384413719177,-0.004846886266022921,-9.655627250671387,NaN,NaN,NaN,-1.8710713386535645,-1.1256732940673828,0.3100171983242035,0.01380618941038847,-0.001204167609103024,-0.0003692986210808158,-1.56,1.29,6.4,-0.02,0.01,-0.04
83940.831,410998558,290255357,82.44,0.04000000283122063,0.023000001907348633,0,-0.0002848671574611217,0.0005909540923312306,-0.0014825299149379134,0.1763302981853485,0.009464670903980732,-9.672418594360352,NaN,NaN,NaN,-1.8817251920700073,-1.1237093210220337,0.3121818006038666,0.011691448278725147,0.0016679163090884686,0.0009467211784794927,-1.57,1.28,6.4,-0.02,0.01,-0.04
84040.831,410998556,290255357,82.43,0.003000000026077032,0.0010000000474974513,0,-0.0017500639660283923,-0.0005460265092551708,0.004125748295336962,0.17485032975673676,0.01283349748700857,-9.66394329071045,NaN,NaN,NaN,-1.8964152336120605,-1.1198943853378296,0.313809871673584,0.009189669974148273,0.005696475971490145,0.0013639028184115887,-1.57,1.29,6.39,-0.02,0.01,-0.04
84140.831,410998556,290255357,82.43,0.003000000026077032,0.0010000000474974513,0,-0.0024220061022788286,-0.0003833209048025308,-0.003561747260391712,0.171340674161911,-0.010281886905431746,-9.68022632598877,NaN,NaN,NaN,-1.9066261053085327,-1.1163333654403687,0.3145442008972168,0.00899867620319128,0.010249314829707146,0.0012757228687405586,-1.57,1.29,6.4,-0.02,0.01,-0.04
84240.831,410998555,290255357,82.45,0.018000001087784767,0.02400000020861626,0,-0.001964899245649576,0.0015362565172836185,-0.005548432935029268,0.17324791848659515,0.00499478727579117,-9.652767181396484,NaN,NaN,NaN,-1.9224334955215454,-1.1142256259918213,0.31493356823921204,0.006306183058768511,0.010990822687745094,0.002264336682856083,-1.58,1.3,6.38,-0.02,0.01,-0.04
84340.831,410998555,290255357,82.45,0.018000001087784767,0.02400000020861626,0,-0.004751516971737146,-0.0005331109277904034,0.005469333380460739,0.1602344959974289,-0.024925049394369125,-9.66762924194336,NaN,NaN,NaN,-1.9336011409759521,-1.1128273010253906,0.31523972749710083,0.006306890863925219,0.012608453631401062,0.0019120274810120463,-1.57,1.3,6.4,-0.02,0.01,-0.04
84440.831,410998553,290255357,82.48,0.01900000125169754,0.046000003814697266,0,0.002751308726146817,-0.0026397465262562037,-0.008355405181646347,0.18207503855228424,-0.04684564471244812,-9.643568992614746,NaN,NaN,NaN,-1.945643424987793,-1.1128066778182983,0.3166975677013397,0.006049287039786577,0.011404899880290031,0.0024353910703212023,-1.58,1.3,6.35,-0.02,0.01,-0.04
84540.831,410998553,290255357,82.48,0.01900000125169754,0.046000003814697266,0,0.0018632567953318357,0.01100056990981102,0.005699227098375559,0.1488911211490631,-0.030146362259984016,-9.670953750610352,NaN,NaN,NaN,-1.9565725326538086,-1.1125555038452148,0.3182242214679718,0.005164526868611574,0.010836354456841946,0.002133284229785204,-1.57,1.3,6.39,-0.02,0.01,-0.04
84640.831,410998552,290255358,82.48,0.021000001579523087,-0.0010000000474974513,0,-0.014317979104816917,-0.004979999270290136,-0.0178731307387352,0.14794087409973145,-0.007900216616690159,-9.701858520507812,NaN,NaN,NaN,-1.9565725326538086,-1.1125555038452148,0.3182242214679718,0.005164526868611574,0.010836354456841946,0.002133284229785204,-1.57,1.3,6.39,-0.02,0.01,-0.04
84740.831,410998552,290255358,82.48,0.021000001579523087,-0.0010000000474974513,0,-0.006775200832635164,0.03242561221122742,0.01242033764719963,0.19827593863010406,-0.033783070743083954,-9.672318458557129,NaN,NaN,NaN,-1.9681634902954102,-1.11167573928833,0.32082828879356384,0.008555784821510315,0.012790358625352383,0.004516328684985638,-1.58,1.31,6.36,-0.02,0.01,-0.04
84840.831,410998551,290255358,82.5,0.021000001579523087,-0.03800000250339508,0,0.010394998826086521,0.03203102573752404,-0.01605202630162239,0.1817876100540161,0.05786214768886566,-9.723408699035645,NaN,NaN,NaN,-1.9779056310653687,-1.1105178594589233,0.3230523467063904,0.007198002655059099,0.011175990104675293,0.0008476258954033251,-1.57,1.32,6.36,-0.02,0.01,-0.04
84940.831,410998551,290255358,82.5,0.021000001579523087,-0.03800000250339508,0,0.012662060558795929,0.004978168290108442,0.0068666678853333,0.19846239686012268,-0.05236942693591118,-9.721041679382324,NaN,NaN,NaN,-1.9895646572113037,-1.1089277267456055,0.3237985372543335,0.005356408655643463,0.013508517295122147,0.002404951024800539,-1.58,1.32,6.37,-0.02,0.01,-0.04
85040.831,410998550,290255359,82.5,0.024000000208616257,0.012000000104308135,0,-0.0024816254153847694,0.0005894007044844329,-0.00865983497351408,0.16390617191791534,0.010558591224253178,-9.670954704284668,NaN,NaN,NaN,-1.9983183145523071,-1.1073261499404907,0.32371601462364197,0.003871630411595106,0.013468978926539421,0.0011024953564628959,-1.57,1.32,6.35,-0.02,0.01,-0.04
85140.831,410998550,290255359,82.5,0.024000000208616257,0.012000000104308135,0,-0.008755050599575043,-0.008315347135066986,-0.008726882748305798,0.14911940693855286,-0.005822780542075632,-9.665270805358887,NaN,NaN,NaN,-2.0093040466308594,-1.1058998107910156,0.3219108283519745,0.00503278523683548,0.014270693063735962,-0.00018664647359400988,-1.58,1.32,6.37,-0.02,0.01,-0.04
85240.831,410998548,290255359,82.51,0.013000000268220901,0.018000001087784767,0,0.007669293787330389,0.0002527424949221313,0.004788787569850683,0.17475950717926025,0.05842454358935356,-9.631061553955078,NaN,NaN,NaN,-2.0190210342407227,-1.1043705940246582,0.32042667269706726,0.00709130335599184,0.016185278072953224,0.002831063000485301,-1.57,1.31,6.36,-0.02,0.01,-0.03
85340.831,410998548,290255359,82.51,0.013000000268220901,0.018000001087784767,0,0.01938379742205143,-0.0025064751971513033,0.0011384524405002594,0.1823205202817917,-0.0036562420427799225,-9.660435676574707,NaN,NaN,NaN,-2.028687000274658,-1.102776050567627,0.31954601407051086,0.0038559711538255215,0.014692083932459354,0.0007586580468341708,-1.58,1.32,6.34,-0.02,0.01,-0.03
85440.831,410998547,290255359,82.52,0.03500000014901161,0.039000000804662704,0,-0.017747091129422188,-0.006560683716088533,-0.0011365128448233008,0.1054101437330246,-0.05623204633593559,-9.644577980041504,NaN,NaN,NaN,-2.0366530418395996,-1.1015392541885376,0.3187653422355652,0.0033305655233561993,0.012206075713038445,-0.002301880856975913,-1.58,1.31,6.35,-0.02,0.01,-0.03
85540.831,410998547,290255359,82.52,0.03500000014901161,0.039000000804662704,0,-0.0016083881491795182,0.002640353748574853,-0.003505630185827613,0.15422789752483368,0.00308089517056942,-9.665796279907227,NaN,NaN,NaN,-2.046351432800293,-1.1013896465301514,0.3188377916812897,0.005540159065276384,0.013640082441270351,-0.0005043954006396236,-1.58,1.32,6.34,-0.02,0.01,-0.03
85640.831,410998545,290255359,82.53,0.02800000086426735,0.02200000174343586,0,0.013995825313031677,-0.001235573785379529,-0.006197338458150625,0.1608659327030182,0.022974291816353798,-9.62626838684082,NaN,NaN,NaN,-2.0557327270507812,-1.1012156009674072,0.319472998380661,0.003933482803404331,0.01346589159220457,-0.0003326662117615342,-1.57,1.32,6.34,-0.02,0.01,-0.03
85740.831,410998545,290255359,82.53,0.02800000086426735,0.02200000174343586,0,0.005817714612931013,-0.01269061490893364,-0.0013240466360002747,0.14542114734649658,0.05902016535401344,-9.586483001708984,NaN,NaN,NaN,-2.0676324367523193,-1.1009465456008911,0.32142606377601624,0.003050469793379307,0.013596548698842525,-0.0003059770679101348,-1.57,1.32,6.34,-0.02,0.01,-0.03
85840.831,410998544,290255359,82.52,0.05100000277161598,0.06599999964237213,0,-0.0024491362273693085,-0.00468871695920825,0.0001696155377430842,0.1284315586090088,-0.04654039070010185,-9.665555953979492,NaN,NaN,NaN,-2.0778279304504395,-1.101135492324829,0.3230099678039551,-0.00012566987425088882,0.01112751942127943,0.0000213568564504385,-1.57,1.32,6.34,-0.02,0.01,-0.03
85940.831,410998544,290255359,82.52,0.05100000277161598,0.06599999964237213,0,-0.005868480075150728,0.0010341100860387087,-0.0002599089057184756,0.18960824608802795,0.007239731959998608,-9.731473922729492,NaN,NaN,NaN,-2.0897953510284424,-1.1028884649276733,0.325083464384079,0.0017645350890234113,0.009006049484014511,-0.0017960087861865757,-1.57,1.33,6.34,-0.02,0.01,-0.03
86040.831,410998543,290255359,82.51,0.02300000190734863,0.026000000536441803,0,-0.000751470623072237,0.00030643274658359587,0.00047145417192950845,0.18137270212173462,-0.034729111939668655,-9.690241813659668,NaN,NaN,NaN,-2.099867105484009,-1.1045467853546143,0.326747864484787,-0.0001990442251553759,0.007602442987263203,-0.0018933187238872051,-1.57,1.33,6.33,-0.02,0.01,-0.03
86140.831,410998543,290255359,82.51,0.02300000190734863,0.026000000536441803,0,0.0005640102317556739,0.009520389139652252,-0.004236933775246143,0.19947315752506256,-0.0453270748257637,-9.668987274169922,NaN,NaN,NaN,-2.1079978942871094,-1.1060348749160767,0.3295973837375641,0.0010404952336102724,0.004947456531226635,-0.0015113342087715864,-1.57,1.33,6.33,-0.02,0.01,-0.03
86240.831,410998542,290255359,82.52,0.012000000104308128,0.09100000560283661,0,0.0014573491644114256,-0.002549612196162343,0.004568038042634726,0.1398472785949707,-0.024299420416355133,-9.616074562072754,NaN,NaN,NaN,-2.115687131881714,-1.1077296733856201,0.33222272992134094,0.0026602703146636486,0.0045327115803956985,0.0002570273354649546,-1.57,1.32,6.33,-0.02,0.01,-0.03
86340.831,410998542,290255359,82.52,0.012000000104308128,0.09100000560283661,0,0.007155175786465406,0.0014823501696810126,-0.0002917806268669665,0.1923062950372696,0.030410129576921463,-9.748797416687012,NaN,NaN,NaN,-2.1242728233337402,-1.1099295616149902,0.33458223938941956,0.0019775209948420525,0.0019092222210019827,0.004128119442611933,-1.56,1.33,6.33,-0.02,0.01,-0.03
86440.831,410998541,290255359,82.53,0.017000000923871994,-0.01600000075995922,0,0.008127283304929733,-0.007100083399564028,0.005829839035868645,0.16040074825286865,-0.018416697159409523,-9.708088874816895,NaN,NaN,NaN,-2.132263660430908,-1.1116783618927002,0.3382312059402466,0.0032341836486011744,0.0015307948924601078,0.0026220018044114113,-1.56,1.33,6.33,-0.02,0.01,-0.03
86540.831,410998541,290255359,82.53,0.017000000923871994,-0.01600000075995922,0,0.001794444047845901,0.0034358527045696974,0.0011510621989145875,0.18005691468715668,0.034678369760513306,-9.682174682617188,NaN,NaN,NaN,-2.1408820152282715,-1.11306893825531,0.3443884551525116,0.001986166462302208,0.00013156660133972764,0.0032046749256551266,-1.57,1.33,6.32,-0.02,0.01,-0.03
86640.831,410998539,290255359,82.55,0.024000000208616257,0.006000000052154064,0,0.008371349424123764,0.006180912721902132,0.00557068083435297,0.1751314401626587,-0.015801746398210526,-9.728113174438477,NaN,NaN,NaN,-2.148775100708008,-1.1140167713165283,0.34851542115211487,0.00464277807623148,0.000018406659364700317,0.005561665631830692,-1.57,1.34,6.31,-0.02,0.01,-0.03
86740.831,410998539,290255359,82.55,0.024000000208616257,0.006000000052154064,0,-0.001845653052441774,-0.004259362351149321,0.011707241646945477,0.17129504680633545,0.0027564114425331354,-9.731101036071777,NaN,NaN,NaN,-2.1570112705230713,-1.114527702331543,0.3507949709892273,0.0026352296117693186,-0.0015540168387815356,0.004842250142246485,-1.56,1.34,6.3,-0.02,0.01,-0.03
86840.831,410998538,290255359,82.54,0.029000001028180122,0.036000002175569534,0,0.0018437855178490281,-0.001234884257428348,-0.003333801869302988,0.1900358349084854,0.045052070170640945,-9.631599426269531,NaN,NaN,NaN,-2.166261672973633,-1.1154017448425293,0.35126087069511414,0.002292315009981394,-0.0015888725174590945,0.0033740787766873837,-1.56,1.34,6.3,-0.02,0.01,-0.03
86940.831,410998538,290255359,82.54,0.029000001028180122,0.036000002175569534,0,0.0017617150442674756,0.0032710847444832325,0.006038052495568991,0.16885651648044586,-0.043559957295656204,-9.584057807922363,NaN,NaN,NaN,-2.1746041774749756,-1.1165966987609863,0.35116052627563477,0.005152679514139891,-0.002717427909374237,0.005147420335561037,-1.56,1.35,6.31,-0.02,0.01,-0.03
87040.831,410998537,290255359,82.54,0.029000001028180122,0.017000000923871994,0,0.002156275324523449,0.00008946664456743747,0.003916263114660978,0.19591325521469116,0.042631495743989944,-9.598333358764648,NaN,NaN,NaN,-2.182435989379883,-1.1180325746536255,0.352207213640213,0.003123245434835553,-0.004022329114377499,0.008001578971743584,-1.56,1.34,6.3,-0.02,0.01,-0.03
87140.831,410998537,290255359,82.54,0.029000001028180122,0.017000000923871994,0,-0.000693530251737684,0.0005212367395870388,0.0030294412281364202,0.16222518682479858,0.012397784739732728,-9.700126647949219,NaN,NaN,NaN,-2.190976858139038,-1.1198986768722534,0.35314708948135376,0.0028121843934059143,-0.005400560330599546,0.009329444728791714,-1.56,1.34,6.3,-0.02,0.01,-0.03
87240.831,410998536,290255360,82.53,0.0430000014603138,0.009000000543892384,0,-0.008868107572197914,0.004604438319802284,-0.005497118458151817,0.1481885313987732,0.05480599030852318,-9.680973052978516,NaN,NaN,NaN,-2.1998183727264404,-1.1218254566192627,0.35439980030059814,0.00005415710620582104,-0.007275355979800224,0.0050786342471838,-1.57,1.35,6.29,-0.02,0.01,-0.03
87340.831,410998536,290255360,82.53,0.0430000014603138,0.009000000543892384,0,0.012033207342028618,0.013678319752216339,-0.0003784004948101938,0.24696193635463715,-0.006307397503405809,-9.539782524108887,NaN,NaN,NaN,-2.207385301589966,-1.1236162185668945,0.3558456003665924,-0.0009678087662905455,-0.007467465940862894,0.006009730976074934,-1.56,1.35,6.29,-0.02,0.01,-0.03
87440.831,410998534,290255362,82.53,0.055000003427267075,0.06300000101327896,0,0.006474801804870367,0.0025365620385855436,0.005517994053661823,0.1177254244685173,-0.00691980542615056,-9.653168678283691,NaN,NaN,NaN,-2.2153124809265137,-1.124098539352417,0.3566034734249115,-0.003687919583171606,-0.0078085679560899734,0.006028864532709122,-1.56,1.35,6.3,-0.02,0.01,-0.03
87540.831,410998534,290255362,82.53,0.055000003427267075,0.06300000101327896,0,0.0010979381622746587,-0.0021345755085349083,-0.0007486339309252799,0.18854108452796936,0.006184601224958897,-9.7564115524292,NaN,NaN,NaN,-2.2250194549560547,-1.122910737991333,0.3564595580101013,0.0009191923309117556,-0.009176686406135559,0.007791571784764528,-1.56,1.36,6.29,-0.02,0.01,-0.03
87640.831,410998533,290255364,82.53,0.05000000074505806,-0.004000000189989805,0,-0.019121207296848297,-0.007189333904534578,-0.001953663770109415,0.19920209050178528,-0.04886433854699135,-9.726190567016602,NaN,NaN,NaN,-2.23472261428833,-1.119996190071106,0.35697606205940247,-0.003443513298407197,-0.005478445906192064,0.005310874432325363,-1.56,1.36,6.3,-0.02,0.01,-0.03
87740.831,410998533,290255364,82.53,0.05000000074505806,-0.004000000189989805,0,-0.010607126168906689,-0.0047836643643677235,0.003311220556497574,0.2150612622499466,-0.016513662412762642,-9.664379119873047,NaN,NaN,NaN,-2.242637872695923,-1.1161421537399292,0.3574214279651642,-0.0029485016129910946,-0.0023944443091750145,0.007475723046809435,-1.56,1.36,6.3,-0.02,0.01,-0.03
87840.831,410998532,290255365,82.52,0.009000000543892384,0.05300000309944153,0,-0.006809948477894068,-0.0019442331977188587,-0.0031031409744173306,0.2099592089653015,-0.08777949959039688,-9.644318580627441,NaN,NaN,NaN,-2.2505898475646973,-1.1116219758987427,0.35660314559936523,-0.005645924247801304,0.00045677321031689644,0.004784804303199053,-1.55,1.36,6.29,-0.02,0.01,-0.03
87940.831,410998532,290255365,82.52,0.009000000543892384,0.05300000309944153,0,0.010676968842744827,-0.005229479633271694,0.014942076057195663,0.18314939737319946,-0.010728306137025356,-9.736918449401855,NaN,NaN,NaN,-2.2596898078918457,-1.10590660572052,0.35476282238960266,-0.007000443525612354,0.0027435030788183212,0.00418585492298007,-1.55,1.35,6.3,-0.02,0.01,-0.03
88040.831,410998531,290255365,82.52,0.020000001415610313,0.10700000822544098,0,0.005545270629227161,-0.0023164411541074514,-0.00033855746733024716,0.19178567826747894,-0.002016358310356736,-9.715191841125488,NaN,NaN,NaN,-2.2703959941864014,-1.1005455255508423,0.35401564836502075,-0.008536260575056076,0.006528087891638279,0.006170079577714205,-1.54,1.36,6.29,-0.02,0.01,-0.03
88140.831,410998531,290255365,82.52,0.020000001415610313,0.10700000822544098,0,-0.00015886012988630704,-0.006269129458814859,0.0059322635643184185,0.11197659373283386,-0.014493001624941826,-9.60741901397705,NaN,NaN,NaN,-2.2793166637420654,-1.0965300798416138,0.35536205768585205,-0.006721137091517448,0.0066633704118430614,0.007800827734172344,-1.52,1.33,6.3,-0.02,0.01,-0.03
88240.831,410998529,290255367,82.51,0.04000000283122063,0.023000001907348633,0,0.012409085407853127,0.00799963157624006,-0.0008971113711595537,0.13644777238368988,0.11800117790699005,-9.573366165161133,NaN,NaN,NaN,-2.288238286972046,-1.09298574924469,0.3598443269729614,-0.005321413278579712,0.01328055839985609,0.004088161047548056,-1.51,1.31,6.28,-0.02,0.01,-0.03
88340.831,410998529,290255367,82.51,0.04000000283122063,0.023000001907348633,0,0.007373932283371687,-0.01395935844630003,0.0028422053437680006,0.15576082468032837,-0.1984274983406067,-9.672453880310059,NaN,NaN,NaN,-2.295717477798462,-1.089989423751831,0.3641250431537628,-0.012080508284270763,0.0013580461964011192,0.00883435271680355,-1.47,1.29,6.29,-0.02,0.01,-0.03
88440.831,410998528,290255368,82.53,0.04100000113248825,0.05100000277161598,0,0.005561486352235079,0.024849440902471542,0.013102775439620018,0.35533949732780457,-0.13862924277782437,-9.791938781738281,NaN,NaN,NaN,-2.305593252182007,-1.0857739448547363,0.36754170060157776,-0.011391247622668743,0.012818409129977226,0.005739680025726557,-1.45,1.29,6.3,-0.02,0.01,-0.03
88540.831,410998528,290255368,82.53,0.04100000113248825,0.05100000277161598,0,0.032825782895088196,0.017396776005625725,-0.00209709070622921,0.20902565121650696,-0.028377393260598183,-9.60930061340332,NaN,NaN,NaN,-2.314223527908325,-1.081626057624817,0.3697988986968994,-0.009435529820621014,0.02291473001241684,0.0037628277204930782,-1.45,1.21,6.26,-0.02,0.01,-0.03
88640.831,410998527,290255369,82.52,0.05100000277161598,-0.04500000178813934,0,0.013453424908220765,0.008320149034261703,-0.008417057804763317,0.16223350167274475,0.20656438171863556,-9.780734062194824,NaN,NaN,NaN,-2.322854518890381,-1.076191782951355,0.37162864208221436,-0.002243714639917017,0.03329585865139961,-0.0011523272842168808,-1.33,1.18,6.23,-0.02,0.01,-0.03
88740.831,410998527,290255369,82.52,0.05100000277161598,-0.04500000178813934,0,0.04582004249095917,-0.03466033190488815,0.0008352420409210026,0.2988397479057312,-0.09497790038585663,-9.750598907470703,NaN,NaN,NaN,-2.328723907470703,-1.0704457759857178,0.3728758990764618,0.010121491737663746,0.03320923075079918,-0.01182466372847557,-1.19,1.06,6.2,-0.02,0.01,-0.03
88840.831,410998527,290255371,82.54,0.09600000083446503,-0.01600000075995922,0,0.06179310381412506,-0.10769023001194,0.03134780377149582,0.21216534078121185,-0.015840353444218636,-9.892597198486328,NaN,NaN,NaN,-2.333940267562866,-1.0646933317184448,0.37034690380096436,0.00410300400108099,0.04402677342295647,-0.038958191871643066,-0.7,0.64,6.39,-0.02,0.01,-0.03
88940.831,410998527,290255371,82.54,0.09600000083446503,-0.01600000075995922,0,0.07593251764774323,-0.16162189841270447,0.02915026620030403,0.2633797824382782,-0.19685098528862,-10.690149307250977,NaN,NaN,NaN,-2.336852550506592,-1.0583479404449463,0.3614084720611572,0.02086060866713524,0.059097934514284134,-0.1399095058441162,0.18999999999999995,-0.12,6.49,-0.02,0.01,-0.03
89040.831,410998527,290255372,82.6,0.11500000208616257,-0.42600002884864807,0,0.03957505151629448,-0.0426877923309803,0.004572274163365364,0.40418291091918945,-0.1399996280670166,-11.420673370361328,NaN,NaN,NaN,-2.3385801315307617,-1.0473531484603882,0.34172606468200684,0.06278102844953537,0.08702553808689117,-0.31967854499816895,0.54,-0.55,6.48,-0.02,0.01,-0.03
89140.831,410998527,290255372,82.6,0.11500000208616257,-0.42600002884864807,0,-0.048009421676397324,0.07232226431369781,0.03541029244661331,0.24235478043556213,-0.21669290959835052,-11.266037940979004,NaN,NaN,NaN,-2.3344905376434326,-1.033880591392517,0.304635614156723,0.08785097301006317,0.1295444369316101,-0.4821159243583679,0.64,-0.46,6.67,-0.02,0.01,-0.03
89240.831,410998527,290255375,82.74,0.23900000751018524,-0.6640000343322754,0,-0.14849421381950378,0.2405136078596115,0.10698670148849487,0.35407015681266785,-0.11585130542516708,-10.735198020935059,NaN,NaN,NaN,-2.328693151473999,-1.019942283630371,0.24991600215435028,0.11349842697381973,0.1498052477836609,-0.5945942401885986,-0.050000000000000044,0.8300000000000001,7.35,-0.02,0.01,-0.03
89340.831,410998527,290255375,82.74,0.23900000751018524,-0.6640000343322754,0,-0.09118473529815674,0.18182046711444855,0.1646435707807541,0.24623756110668182,0.042029958218336105,-9.959080696105957,NaN,NaN,NaN,-2.3199830055236816,-1.0044655799865723,0.1828920990228653,0.119898721575737,0.15939538180828094,-0.6431407928466797,-0.8499999999999999,1.92,8.31,-0.02,0.01,-0.03
89440.831,410998527,290255377,83.01,0.09200000762939453,-0.7920000553131104,0,-0.16431453824043274,0.07565675675868988,0.16825661063194275,0.10217469930648804,0.03853635862469673,-9.881863594055176,NaN,NaN,NaN,-2.3141837120056152,-0.9861812591552734,0.1089450865983963,0.11175572872161865,0.16386407613754272,-0.6664435267448425,-1.57,2.39,9.26,-0.02,0.01,-0.03
89540.831,410998527,290255377,83.01,0.09200000762939453,-0.7920000553131104,0,-0.06043699383735657,-0.04665132611989976,0.15925198793411255,0.29396188259124756,-0.1541013866662979,-9.774036407470703,NaN,NaN,NaN,-2.309194803237915,-0.968021035194397,0.03204469755291939,0.09666351228952408,0.1597067266702652,-0.6695890426635742,-1.68,2.09,10.35,-0.02,0.01,-0.03
89640.831,410998526,290255379,83.12,0.03500000014901161,-0.612000048160553,0,0.03885965794324875,-0.012443097308278084,0.1981232613325119,0.0012414619559422135,0.02300017699599266,-9.50438117980957,NaN,NaN,NaN,-2.3085691928863525,-0.9566096067428589,-0.04887427017092705,0.08641970157623291,0.1558331847190857,-0.6546458601951599,-1.65,1.98,11.52,-0.02,0.01,-0.03
89740.831,410998526,290255379,83.12,0.03500000014901161,-0.612000048160553,0,0.025600146502256393,0.058028046041727066,0.1575884371995926,0.1578415036201477,0.08254143595695496,-9.413795471191406,NaN,NaN,NaN,-2.307919979095459,-0.946489691734314,-0.12631995975971222,0.0641019269824028,0.15665948390960693,-0.6358290910720825,-1.41,2.27,12.38,-0.02,0.01,-0.03
89840.831,410998525,290255383,83.25,0.28600001335144043,-0.6550000309944153,0,-0.03470267355442047,-0.007716169580817223,0.07651856541633606,0.3763781189918518,-0.0414266511797905,-9.270764350891113,NaN,NaN,NaN,-2.3135077953338623,-0.9413461089134216,-0.19883115589618683,0.053779035806655884,0.1306043118238449,-0.6019735932350159,-1.46,2.28,12.88,-0.02,0.01,-0.03
89940.831,410998525,290255383,83.25,0.28600001335144043,-0.6550000309944153,0,0.025329062715172768,-0.060742348432540894,0.01248766016215086,0.049910835921764374,0.0777459666132927,-9.204448699951172,NaN,NaN,NaN,-2.3196561336517334,-0.9364829063415527,-0.26350635290145874,0.03975709527730942,0.14276568591594696,-0.5495231747627258,-1.17,2.05,12.97,-0.02,0.01,-0.03
90040.831,410998525,290255388,83.31,0.16600000858306885,-0.28700000047683716,0,0.07648931443691254,0.013088621199131012,-0.0730331614613533,0.18005147576332092,-0.08154787868261336,-9.124077796936035,NaN,NaN,NaN,-2.330477237701416,-0.9188840985298157,-0.32789063453674316,-0.0019071262795478106,0.16593222320079803,-0.4935167133808136,-0.72,2.03,12.54,-0.02,0.01,-0.03
90140.831,410998525,290255388,83.31,0.16600000858306885,-0.28700000047683716,0,-0.15400519967079163,-0.06789714843034744,-0.1511673927307129,0.09507175534963608,0.114706851541996,-9.175498962402344,NaN,NaN,NaN,-2.3407654762268066,-0.8986270427703857,-0.385994553565979,-0.010745218954980373,0.17987887561321259,-0.4530980587005615,-1.65,1.56,11.58,-0.02,0.01,-0.03
90240.831,410998525,290255391,83.39,0.11700000613927841,-0.3060000240802765,0,-0.2753308415412903,-0.1353893280029297,-0.26423078775405884,0.13504575192928314,-0.11329756677150726,-9.443219184875488,NaN,NaN,NaN,-2.352186918258667,-0.8771658539772034,-0.4329306483268738,-0.022783352062106133,0.18606312572956085,-0.4323486089706421,-2.95,0.74,10.05,-0.02,0.01,-0.03
90340.831,410998525,290255391,83.39,0.11700000613927841,-0.3060000240802765,0,-0.18879471719264984,-0.05653528496623039,-0.30121901631355286,0.02845645509660244,0.2340104877948761,-9.540799140930176,NaN,NaN,NaN,-2.359607458114624,-0.8582550287246704,-0.47615963220596313,-0.01644285023212433,0.16863805055618286,-0.4180915951728821,-4.07,0.25000000000000006,8.28,-0.02,0.01,-0.03
90440.831,410998526,290255393,83.46,0.1420000046491623,-0.37700000405311584,0,-0.10907648503780365,-0.03342296555638313,-0.34140467643737793,0.2428625375032425,0.11633016914129257,-9.645009994506836,NaN,NaN,NaN,-2.364530086517334,-0.8468524217605591,-0.5138139724731445,-0.0004819156602025032,0.11803185194730759,-0.4004884660243988,-4.64,0.10999999999999999,6.26,-0.02,0.01,-0.03
90540.831,410998526,290255393,83.46,0.1420000046491623,-0.37700000405311584,0,0.0685509592294693,0.0702056959271431,-0.3599255383014679,-0.0720164105296135,0.19332085549831388,-9.67220687866211,NaN,NaN,NaN,-2.36547589302063,-0.8393813371658325,-0.5545749664306641,0.022289207205176353,0.08303716033697128,-0.4200016260147095,-4.36,0.25,4.23,-0.02,0.01,-0.03
90640.831,410998525,290255394,83.59,0.10400000214576721,-0.43300002813339233,0,0.06023537367582321,0.060930024832487106,-0.34671905636787415,-0.09597274661064148,0.016586508601903915,-9.865294456481934,NaN,NaN,NaN,-2.3637027740478516,-0.8385264873504639,-0.6006839275360107,0.018329493701457977,0.042830269783735275,-0.4323570430278778,-3.8,0.58,2.21,-0.02,0.01,-0.03
90740.831,410998525,290255394,83.59,0.10400000214576721,-0.43300002813339233,0,0.06935517489910126,-0.00020831276196986437,-0.3347472846508026,-0.02472612075507641,0.087775819003582,-9.825669288635254,NaN,NaN,NaN,-2.3610966205596924,-0.8404510021209717,-0.650171160697937,0.016117572784423828,0.0025087844114750624,-0.4423865079879761,-3.34,0.77,0.3500000000000001,-0.02,0.01,-0.03
90840.831,410998524,290255395,83.72,0.052000001072883606,-0.6480000019073486,0,0.027836592867970467,0.05626855045557022,-0.30418428778648376,-0.06839338690042496,-0.022898513823747635,-9.895719528198242,NaN,NaN,NaN,-2.3675899505615234,-0.838978111743927,-0.7035303115844727,0.0061622620560228825,-0.018510568886995316,-0.46289053559303284,-3.49,0.91,358.8,-0.02,0.01,-0.03
90940.831,410998524,290255395,83.72,0.052000001072883606,-0.6480000019073486,0,-0.09510231018066406,-0.008390363305807114,-0.18022380769252777,0.04259008541703224,0.30296432971954346,-9.913363456726074,NaN,NaN,NaN,-2.3729968070983887,-0.8407706618309021,-0.7592098712921143,-0.006998682394623758,-0.05726468935608864,-0.4814722239971161,-4.09,0.69,357.89,-0.02,0.01,-0.03
91040.831,410998523,290255393,83.84,0.10500000417232513,-0.4870000183582306,0,0.02655999176204206,0.014831238426268108,-0.08451446145772934,0.09813207387924194,0.10469403117895126,-9.852827072143555,NaN,NaN,NaN,-2.38155198097229,-0.8474483489990234,-0.8258118629455566,-0.02280917763710022,-0.08798941969871521,-0.5150795578956604,-3.87,0.45,357.67,-0.02,0.01,-0.03
91140.831,410998523,290255393,83.84,0.10500000417232513,-0.4870000183582306,0,0.09734167903661728,-0.06016220152378082,0.03877631202340126,-0.18241721391677856,0.11936240643262863,-9.956310272216797,NaN,NaN,NaN,-2.389185905456543,-0.8574329614639282,-0.8949425220489502,-0.03011239878833294,-0.11679338663816452,-0.5394794940948486,-3.11,0.27,358.09,-0.02,0.01,-0.03
91240.831,410998520,290255391,83.93,0.17500001192092896,-0.4790000319480896,0,0.10885991156101227,-0.005027147009968758,0.1249561458826065,-0.23768579959869388,0.05698510259389877,-9.88113021850586,NaN,NaN,NaN,-2.4021871089935303,-0.8689458966255188,-0.9630693197250366,-0.0406058132648468,-0.12658755481243134,-0.5376687049865723,-2.62,0.29,359.04,-0.02,0.01,-0.03
91340.831,410998520,290255391,83.93,0.17500001192092896,-0.4790000319480896,0,0.09224814176559448,-0.06275981664657593,0.23110491037368774,-0.02053903043270111,0.17353211343288422,-9.655362129211426,NaN,NaN,NaN,-2.415517807006836,-0.8817375898361206,-1.030488133430481,-0.0495268888771534,-0.13218680024147034,-0.5455907583236694,-2.35,-0.07,0.44999999999998863,-0.02,0.01,-0.03
91440.831,410998519,290255388,84.01,0.1420000046491623,-0.47700002789497375,0,0.024736840277910233,-0.03749502822756767,0.2298702448606491,0.020697182044386864,0.10251873731613159,-9.864091873168945,NaN,NaN,NaN,-2.4320545196533203,-0.8950638771057129,-1.0930455923080444,-0.05224701389670372,-0.1395089477300644,-0.5546327829360962,-2.42,-0.46,1.92,-0.02,0.01,-0.03
91540.831,410998519,290255388,84.01,0.1420000046491623,-0.47700002789497375,0,-0.02731279656291008,-0.06942442059516907,0.2640012800693512,0.03058621473610401,0.16390903294086456,-9.712790489196777,NaN,NaN,NaN,-2.445265531539917,-0.909166693687439,-1.153754472732544,-0.05356834828853607,-0.15115544199943542,-0.5456568002700806,-2.52,-0.79,3.48,-0.02,0.01,-0.03
91640.831,410998519,290255388,84.01,0.1420000046491623,-0.47700002789497375,0,0.013173681683838367,-0.02224631793797016,0.27132129669189453,-0.06062651798129082,0.208438903093338,-9.531563758850098,NaN,NaN,NaN,-2.445265531539917,-0.909166693687439,-1.153754472732544,-0.05356834828853607,-0.15115544199943542,-0.5456568002700806,-2.52,-0.79,3.48,-0.02,0.01,-0.03
91740.831,410998518,290255385,84.1,0.1940000057220459,-0.34300002455711365,0,0.0016627542208880186,0.06138571351766586,0.22025462985038757,-0.16806000471115112,0.26963135600090027,-9.536983489990234,NaN,NaN,NaN,-2.452702760696411,-0.9214393496513367,-1.2106969356536865,-0.041507475078105927,-0.15113362669944763,-0.5334489941596985,-2.62,-0.69,4.9,-0.02,0.01,-0.03
91840.831,410998516,290255381,84.2,0.17000000178813934,-0.38700002431869507,0,-0.0460168682038784,0.056497249752283096,0.1878240555524826,-0.19855046272277832,-0.030302157625555992,-9.589340209960938,NaN,NaN,NaN,-2.4599123001098633,-0.9355302453041077,-1.2666760683059692,-0.024174081161618233,-0.15541517734527588,-0.5412594079971313,-2.88,-0.2099999999999999,6.09,-0.02,0.01,-0.03
91940.831,410998516,290255381,84.2,0.17000000178813934,-0.38700002431869507,0,-0.017556775361299515,-0.021978067234158516,0.1651587039232254,-0.14263969659805295,-0.11063829064369202,-9.65771198272705,NaN,NaN,NaN,-2.4724271297454834,-0.9506089091300964,-1.3170709609985352,-0.0348912738263607,-0.18218185007572174,-0.5320162773132324,-3.13,-0.07999999999999999,7.1,-0.02,0.01,-0.03
92040.831,410998515,290255377,84.29,0.24400001764297485,-0.5120000243186951,0,0.08564413338899612,-0.1387452483177185,0.11981701105833054,-0.21633309125900269,0.011398068629205227,-9.618694305419922,NaN,NaN,NaN,-2.484062433242798,-0.9679097533226013,-1.369474172592163,-0.026573117822408676,-0.1894313097000122,-0.5391469597816467,-2.89,-0.53,7.92,-0.02,0.01,-0.03
92140.831,410998515,290255377,84.29,0.24400001764297485,-0.5120000243186951,0,0.05895135551691055,-0.05067497119307518,0.09598571807146072,0.0033413791097700596,-0.007500782608985901,-9.655061721801758,NaN,NaN,NaN,-2.494640827178955,-0.9863463640213013,-1.4223111867904663,-0.015610957518219948,-0.21243320405483246,-0.5397988557815552,-2.37,-0.97,8.55,-0.02,0.01,-0.03
92240.831,410998515,290255371,84.43,0.2370000183582306,-0.5690000057220459,0,0.07096268981695175,-0.02854355424642563,0.035534802824258804,0.02882218174636364,-0.1306605339050293,-9.6669340133667,NaN,NaN,NaN,-2.5008363723754883,-1.0061333179473877,-1.4776611328125,0.0036251642741262913,-0.18651390075683594,-0.545674741268158,-1.88,-1.04,8.97,-0.02,0.01,-0.03
92340.831,410998515,290255371,84.43,0.2370000183582306,-0.5690000057220459,0,0.11361277103424072,-0.09714759141206741,-0.00913978647440672,-0.10387615859508514,-0.0680646002292633,-9.842703819274902,NaN,NaN,NaN,-2.502809524536133,-1.0258415937423706,-1.5329487323760986,0.024520397186279297,-0.1871161013841629,-0.5386101603507996,-1.24,-1.47,9,-0.02,0.01,-0.03
92440.831,410998516,290255368,84.53,0.11700000613927841,-0.5700000524520874,0,0.03920450806617737,0.03411427885293962,-0.07160601764917374,-0.1270672231912613,0.22117264568805695,-9.72617244720459,NaN,NaN,NaN,-2.500880002975464,-1.0443687438964844,-1.5913960933685303,0.06940034031867981,-0.16695062816143036,-0.5561153888702393,-0.69,-1.74,8.64,-0.02,0.01,-0.03
92540.831,410998516,290255368,84.53,0.11700000613927841,-0.5700000524520874,0,-0.08565343171358109,0.11417871713638306,-0.10742823779582977,0.04415274038910866,0.12495295703411102,-9.561073303222656,NaN,NaN,NaN,-2.4960029125213623,-1.0606887340545654,-1.6492588520050049,0.09181775897741318,-0.1348143070936203,-0.5647784471511841,-0.94,-1.43,8.1,-0.02,0.01,-0.03
92640.831,410998517,290255366,84.63,0.08100000023841858,-0.609000027179718,0,0.017863541841506958,0.13442979753017426,-0.09731992334127426,-0.07371695339679718,0.167039692401886,-9.690220832824707,NaN,NaN,NaN,-2.4887523651123047,-1.0740689039230347,-1.7059590816497803,0.1182345598936081,-0.12175077944993973,-0.5636120438575745,-1.35,-0.89,7.5,-0.02,0.01,-0.03
92740.831,410998517,290255366,84.63,0.08100000023841858,-0.609000027179718,0,0.01680270954966545,0.044548552483320236,-0.05233338102698326,-0.04688752070069313,0.19713009893894196,-9.8141450881958,NaN,NaN,NaN,-2.4832115173339844,-1.0836554765701294,-1.7637302875518799,0.13449980318546295,-0.09746523946523666,-0.574260950088501,-1.22,-0.44,7,-0.02,0.01,-0.03
92840.831,410998518,290255364,84.76,0.20200000703334808,-0.6450000405311584,0,-0.14899054169654846,-0.04030867666006088,-0.019090263172984123,0.05139201879501343,-0.13355740904808044,-9.781242370605469,NaN,NaN,NaN,-2.4768319129943848,-1.090185284614563,-1.826279878616333,0.12884999811649323,-0.07417427748441696,-0.5926059484481812,-1.54,-0.39,6.66,-0.02,0.01,-0.03
92940.831,410998518,290255364,84.76,0.20200000703334808,-0.6450000405311584,0,-0.11702936142683029,-0.030477536842226982,0.023283256217837334,-0.13704490661621094,0.11161228269338608,-9.79852294921875,NaN,NaN,NaN,-2.472599983215332,-1.0925334692001343,-1.8912980556488037,0.13462896645069122,-0.07816693186759949,-0.5979925990104675,-2.17,-0.49,6.66,-0.02,0.01,-0.03
93040.831,410998521,290255361,84.86,0.23000000417232513,-0.5570000410079956,0,-0.05113459378480911,0.028376836329698563,0.07198045402765274,-0.00686661945655942,-0.014891837723553179,-9.61221981048584,NaN,NaN,NaN,-2.4665892124176025,-1.0995874404907227,-1.959596872329712,0.14269442856311798,-0.09459491074085236,-0.6045687794685364,-2.47,-0.25,6.95,-0.02,0.01,-0.03
93140.831,410998521,290255361,84.86,0.23000000417232513,-0.5570000410079956,0,0.11719299107789993,0.06255462020635605,0.10582474619150162,0.031784236431121826,-0.04454360902309418,-9.741991996765137,NaN,NaN,NaN,-2.4603683948516846,-1.1101367473602295,-2.026682138442993,0.1454511284828186,-0.09682168066501617,-0.604968786239624,-2.16,0.10999999999999999,7.38,-0.02,0.01,-0.03
93240.831,410998524,290255361,84.91,0.14800000190734863,-0.5430000424385071,0,0.2054937779903412,-0.016393009573221207,0.10882550477981567,-0.18699383735656738,0.16436344385147095,-9.811168670654297,NaN,NaN,NaN,-2.452758550643921,-1.121940016746521,-2.097825050354004,0.14460253715515137,-0.09986844658851624,-0.6256279349327087,-1.04,0.25,8.01,-0.02,0.01,-0.03
93340.831,410998524,290255361,84.91,0.14800000190734863,-0.5430000424385071,0,0.07596928626298904,-0.004495668690651655,0.11996863037347794,0.04137450456619263,-0.005055376794189215,-9.660343170166016,NaN,NaN,NaN,-2.4439704418182373,-1.1320712566375732,-2.1667394638061523,0.1371602863073349,-0.07761935144662857,-0.6164618730545044,-0.20999999999999996,0.37,8.65,-0.02,0.01,-0.03
93440.831,410998526,290255360,85.02,0.18900001049041748,-0.5460000038146973,0,-0.04804261401295662,-0.08454183489084244,0.07414017617702484,-0.0973816141486168,0.22474117577075958,-9.690681457519531,NaN,NaN,NaN,-2.4365694522857666,-1.1345913410186768,-2.2353286743164062,0.11850562691688538,-0.04638197273015976,-0.6112237572669983,-0.19,0,9.15,-0.02,0.01,-0.03
93540.831,410998526,290255360,85.02,0.18900001049041748,-0.5460000038146973,0,-0.10687624663114548,-0.048784565180540085,0.07025893032550812,-0.03675280138850211,0.10774654150009152,-9.552266120910645,NaN,NaN,NaN,-2.4294028282165527,-1.131549596786499,-2.303004503250122,0.11971643567085266,-0.01257852278649807,-0.6032491326332092,-0.72,-0.39,9.5,-0.02,0.01,-0.03
93640.831,410998527,290255358,85.18,0.10900000482797623,-0.6540000438690186,0,-0.12006065994501114,0.0409507118165493,0.07295671105384827,-0.14550279080867767,0.026342935860157013,-9.559051513671875,NaN,NaN,NaN,-2.4211769104003906,-1.1300557851791382,-2.3696558475494385,0.11746887117624283,0.012701118364930153,-0.5943366885185242,-1.51,-0.2,9.08,-0.02,0.01,-0.03
93740.831,410998527,290255358,85.18,0.10900000482797623,-0.6540000438690186,0,-0.007457386236637824,0.10057822614908218,0.10328815132379532,-0.03722606226801872,0.273690402507782,-9.643279075622559,NaN,NaN,NaN,-2.411851644515991,-1.1296697854995728,-2.4319772720336914,0.12361332774162292,0.023120015859603882,-0.5909794569015503,-1.82,0.2700000000000001,9.76,-0.02,0.01,-0.03
93840.831,410998530,290255358,85.27,0.15300001204013824,-0.5410000085830688,0,0.10909075289964676,-0.003474603174254298,0.11932770907878876,-0.03301690146327019,0.15444697439670563,-9.511690139770508,NaN,NaN,NaN,-2.4047539234161377,-1.129368543624878,-2.4949824810028076,0.1147892102599144,0.021885227411985397,-0.5833297371864319,-1.41,0.27,10.52,-0.02,0.01,-0.03
93940.831,410998530,290255358,85.27,0.15300001204013824,-0.5410000085830688,0,0.02938735857605934,0.010916170664131641,0.09592906385660172,-0.1264186054468155,-0.10751785337924957,-9.668489456176758,NaN,NaN,NaN,-2.3987348079681396,-1.1280254125595093,-2.556856870651245,0.10142579674720764,0.04248524829745293,-0.5766065120697021,-1.1,0.18,11.09,-0.02,0.01,-0.03
94040.831,410998532,290255358,85.37,0.20400001108646393,-0.578000009059906,0,0.004562633577734232,-0.048577237874269485,0.08006039261817932,0.019738255068659782,0.05825738608837129,-9.548871994018555,NaN,NaN,NaN,-2.391649007797241,-1.123958945274353,-2.618687152862549,0.09457064419984818,0.0612158477306366,-0.5589436292648315,-0.96,0.12,11.5,-0.02,0.01,-0.03
94140.831,410998532,290255358,85.37,0.20400001108646393,-0.578000009059906,0,-0.018180249258875847,0.07952816784381866,0.036449726670980453,0.014117244631052003,0.1328914612531662,-9.595357894897461,NaN,NaN,NaN,-2.384580612182617,-1.1176576614379883,-2.677499294281006,0.09133444726467133,0.07942412048578262,-0.5648595094680786,-1.3,0.35,11.68,-0.02,0.01,-0.03
94240.831,410998536,290255359,85.46,0.18800000846385956,-0.46400001645088196,0,-0.09369099140167236,0.10025779157876968,-0.004271083977073431,0.0036550976801663637,-0.012261539697647095,-9.711892127990723,NaN,NaN,NaN,-2.375075340270996,-1.11061692237854,-2.737809419631958,0.08390401303768158,0.11085259169340134,-0.5678589940071106,-1.74,0.78,11.68,-0.02,0.01,-0.03
94340.831,410998536,290255359,85.46,0.18800000846385956,-0.46400001645088196,0,-0.0032455907203257084,0.06874465942382812,-0.045256149023771286,-0.1009315624833107,0.08990849554538725,-9.601692199707031,NaN,NaN,NaN,-2.366286516189575,-1.1025577783584595,-2.797144651412964,0.06757371127605438,0.0951547771692276,-0.5696825385093689,-1.9,0.88,11.42,-0.02,0.01,-0.03
94440.831,410998538,290255360,85.53,0.14500001072883606,-0.6040000319480896,0,0.0202466007322073,0.013495616614818573,-0.11247285455465317,-0.14607203006744385,-0.1266132891178131,-9.69394302368164,NaN,NaN,NaN,-2.355736017227173,-1.0985032320022583,-2.855842351913452,0.047583095729351044,0.10052265226840973,-0.5768551230430603,-2.05,0.65,10.84,-0.02,0.01,-0.03
94540.831,410998538,290255360,85.53,0.14500001072883606,-0.6040000319480896,0,0.0019911511335521936,0.004801803268492222,-0.16840605437755585,-0.10532554984092712,0.09848571568727493,-9.644963264465332,NaN,NaN,NaN,-2.3471028804779053,-1.0927544832229614,-2.9168994426727295,0.0457969531416893,0.09106728434562683,-0.5804774761199951,-2.2,0.46,9.8,-0.02,0.01,-0.03
94640.831,410998541,290255364,85.61,0.1860000044107437,-0.5690000057220459,0,-0.06195741891860962,-0.0188251081854105,-0.18631644546985626,-0.13317474722862244,0.045545343309640884,-9.706900596618652,NaN,NaN,NaN,-2.3390908241271973,-1.0867054462432861,-2.97861385345459,0.04505365341901779,0.07876285910606384,-0.5945107936859131,-2.52,0.58,8.67,-0.02,0.01,-0.03
94740.831,410998541,290255364,85.61,0.1860000044107437,-0.5690000057220459,0,-0.06411757320165634,0.024290546774864197,-0.21155118942260742,-0.03801069408655167,-0.08663049340248108,-10.045778274536133,NaN,NaN,NaN,-2.3390908241271973,-1.0867054462432861,-2.97861385345459,0.04505365341901779,0.07876285910606384,-0.5945107936859131,-2.52,0.58,8.67,-0.02,0.01,-0.03
94840.831,410998542,290255369,85.67,0.19100001454353333,-0.5649999976158142,0,-0.0012137052835896611,-0.03826666250824928,-0.19494624435901642,-0.1907733678817749,0.1307060718536377,-10.393421173095703,NaN,NaN,NaN,-2.331608772277832,-1.0801619291305542,-3.043778419494629,0.045465875416994095,0.058595653623342514,-0.6456131339073181,-2.54,0.78,7.5,-0.02,0.01,-0.03
94940.831,410998542,290255369,85.67,0.19100001454353333,-0.5649999976158142,0,0.00014457583893090487,-0.01595221273601055,-0.16481733322143555,-0.045351672917604446,-0.06977140158414841,-10.858115196228027,NaN,NaN,NaN,-2.323159694671631,-1.072003960609436,-3.117663621902466,0.04001913592219353,0.04960951209068298,-0.7631072998046875,-2.45,0.58,6.5,-0.02,0.01,-0.03
95040.831,410998544,290255372,85.8,0.14800000190734863,-1.0120000839233398,0,-0.13716506958007812,-0.05366755649447441,-0.10013223439455032,0.0031419675797224184,-0.05760926753282547,-11.425690650939941,NaN,NaN,NaN,-2.3165628910064697,-1.062308669090271,-3.206937551498413,0.04109813645482063,0.03640494868159294,-0.912837564945221,-2.64,0.38,5.7,-0.02,0.01,-0.03
95140.831,410998544,290255372,85.8,0.14800000190734863,-1.0120000839233398,0,-0.20011396706104279,-0.014427704736590385,-0.06814506649971008,0.0017623407766222954,-0.05019327253103256,-11.443400382995605,NaN,NaN,NaN,-2.3123514652252197,-1.0510590076446533,-3.3100106716156006,0.050108734518289566,0.008683944121003147,-1.1015838384628296,-3.73,0.07,5.05,-0.02,0.01,-0.03
95240.831,410998545,290255372,86.02,0.0990000069141388,-1.3600000143051147,0,0.011175319552421577,0.003494543256238103,0.0058743697591125965,0.06238124892115593,-0.12713879346847534,-11.46351432800293,NaN,NaN,NaN,-2.304928779602051,-1.045198678970337,-3.4356799125671387,0.06054649129509926,-0.03833068907260895,-1.307754397392273,-4.42,-0.06,4.81,-0.02,0.01,-0.03
95340.831,410998545,290255372,86.02,0.0990000069141388,-1.3600000143051147,0,0.2121071219444275,0.07905729115009308,0.040452904999256134,-0.018158478662371635,-0.023501619696617126,-11.511205673217773,NaN,NaN,NaN,-2.292407512664795,-1.047654628753662,-3.582064628601074,0.09330401569604874,-0.0957474485039711,-1.4921691417694092,-3.67,0.14,5.11,-0.02,0.01,-0.03
95440.831,410998546,290255371,86.3,0.15200001001358032,-1.7020000219345093,0,0.17884193360805511,0.1384405493736267,0.08549301326274872,-0.13379646837711334,-0.011322880163788797,-11.21938419342041,NaN,NaN,NaN,-2.2799789905548096,-1.0558443069458008,-3.7502527236938477,0.10872063040733337,-0.13584159314632416,-1.641184687614441,-2.52,0.89,5.81,-0.02,0.01,-0.03
95540.831,410998546,290255371,86.3,0.15200001001358032,-1.7020000219345093,0,0.16061940789222717,0.015522796660661697,0.15587417781352997,0.0062988088466227055,0.09697484225034714,-10.935282707214355,NaN,NaN,NaN,-2.268876552581787,-1.0660113096237183,-3.932318687438965,0.09635105729103088,-0.16060450673103333,-1.7838181257247925,-1.9,1.27,6.67,-0.02,0.01,-0.03
95640.831,410998546,290255366,86.66,0.242000013589859,-1.8580000400543213,0,0.12163368612527847,-0.03631327301263809,0.18010398745536804,-0.13452360033988953,-0.06436608731746674,-10.64917278289795,NaN,NaN,NaN,-2.266786813735962,-1.0791029930114746,-4.131269454956055,0.07472267001867294,-0.15653537213802338,-1.8965004682540894,-1.11,1.34,7.54,-0.02,0.01,-0.03
95740.831,410998546,290255366,86.66,0.242000013589859,-1.8580000400543213,0,0.044378917664289474,-0.07080146670341492,0.19632792472839355,-0.08386622369289398,0.10885307192802429,-10.619353294372559,NaN,NaN,NaN,-2.2678959369659424,-1.092982292175293,-4.340666770935059,0.038114409893751144,-0.15536241233348846,-1.989865779876709,-0.75,1.02,8.47,-0.02,0.01,-0.03
95840.831,410998546,290255363,87.01,0.12400000542402267,-2.1010000705718994,0,0.09842097014188766,-0.09573698788881302,0.17836765944957733,-0.04119323194026947,0.13091689348220828,-10.327298164367676,NaN,NaN,NaN,-2.272691011428833,-1.1110049486160278,-4.563964366912842,0.039049841463565826,-0.14704732596874237,-2.0563278198242188,-0.49,0.54,9.45,-0.02,0.01,-0.03
95940.831,410998546,290255363,87.01,0.12400000542402267,-2.1010000705718994,0,0.006108848378062241,-0.06301552802324295,0.14132355153560638,-0.04557453840970992,-0.08567504584789276,-10.08875846862793,NaN,NaN,NaN,-2.2778360843658447,-1.1273642778396606,-4.786993503570557,0.01625637896358967,-0.13099640607833862,-2.0914268493652344,-0.25,0.16000000000000003,10.29,-0.02,0.01,-0.03
96040.831,410998546,290255360,87.4,0.24700000882148743,-2.06000018119812,0,0.013798505067825317,-0.064250148832798,0.12641343474388123,-0.17033009231090546,0.15835970640182495,-9.896474838256836,NaN,NaN,NaN,-2.282310962677002,-1.1391602754592896,-5.020696640014648,0.01804819144308567,-0.11933429539203644,-2.1129143238067627,-0.15,-0.05000000000000002,10.71,-0.02,0.01,-0.03
96140.831,410998546,290255360,87.4,0.24700000882148743,-2.06000018119812,0,0.07535457611083984,-0.047251731157302856,-0.00805207435041666,-0.0791541114449501,0.12516428530216217,-9.659784317016602,NaN,NaN,NaN,-2.284125804901123,-1.1487890481948853,-5.248142719268799,0.024299781769514084,-0.08869507163763046,-2.0999748706817627,0.15,-0.20999999999999996,10.57,-0.02,0.01,-0.03
96240.831,410998546,290255357,87.77,0.1120000034570694,-2.064000129699707,0,0.023712778463959687,-0.010016944259405138,-0.11186768114566803,0.0006760253454558517,-0.07162804156541824,-9.520559310913086,NaN,NaN,NaN,-2.2925918102264404,-1.1626496315002441,-5.473062992095947,0.03647974506020546,-0.05902344360947609,-2.0862791538238525,-0.01999999999999999,-0.21,9.86,-0.02,0.01,-0.03
96340.831,410998546,290255357,87.77,0.1120000034570694,-2.064000129699707,0,-0.07939644157886505,-0.04446520656347275,-0.14640432596206665,-0.0077913329005241325,-0.06348326057195663,-9.555126190185547,NaN,NaN,NaN,-2.296128749847412,-1.1726487874984741,-5.700682640075684,0.039307281374931335,-0.04671492800116539,-2.070429563522339,-0.16,-0.37,8.7,-0.02,0.01,-0.03
96440.831,410998547,290255357,88.15,0.01900000125169754,-2.1740000247955322,0,0.06707634776830673,-0.013644364662468426,-0.17355728149414062,-0.03901209682226181,0.1869969218969345,-9.625832557678223,NaN,NaN,NaN,-2.296128749847412,-1.1726487874984741,-5.700682640075684,0.039307281374931335,-0.04671492800116539,-2.070429563522339,-0.16,-0.37,8.7,-0.02,0.01,-0.03
96540.831,410998547,290255357,88.15,0.01900000125169754,-2.1740000247955322,0,-0.027281152084469795,0.11070766299962996,-0.13307783007621765,0.11984282732009888,-0.25381797552108765,-9.492256164550781,NaN,NaN,NaN,-2.2948718070983887,-1.1792290210723877,-5.921706676483154,0.05045536532998085,-0.016986511647701263,-2.0520870685577393,0.13000000000000003,-0.24,7.7,-0.02,0.01,-0.03
96640.831,410998548,290255360,88.53,0.12400000542402267,-2.129000186920166,0,0.009402155876159668,0.14938805997371674,-0.08490148931741714,0.06713705509901047,0.029037311673164368,-9.500566482543945,NaN,NaN,NaN,-2.2920196056365967,-1.1811519861221313,-6.141989707946777,0.059301283210515976,0.01227132976055145,-2.0355467796325684,0.15,0.68,7.01,-0.02,0.01,-0.03
96740.831,410998548,290255360,88.53,0.12400000542402267,-2.129000186920166,0,-0.026653600856661797,0.018854714930057526,-0.11374425888061523,0.039412204176187515,0.01657220348715782,-9.451010704040527,NaN,NaN,NaN,-2.2904515266418457,-1.177037000656128,-6.358381271362305,0.048120494931936264,0.04157508164644241,-2.0189428329467773,0.39,1.5,6.33,-0.02,0.01,-0.03
96840.831,410998549,290255365,88.86,0.164000004529953,-1.9850001335144043,0,-0.10606016963720322,-0.10677391290664673,-0.11260583251714706,0.02598274126648903,-0.15724273025989532,-9.422181129455566,NaN,NaN,NaN,-2.2919929027557373,-1.1668975353240967,-6.579809188842773,0.022712402045726776,0.07035157084465027,-2.002204656600952,-0.050000000000000044,1.32,5.62,-0.02,0.01,-0.03
96940.831,410998549,290255365,88.86,0.164000004529953,-1.9850001335144043,0,-0.09572606533765793,-0.11041677743196487,-0.08502327650785446,0.08699699491262436,0.03200264647603035,-9.422067642211914,NaN,NaN,NaN,-2.2977681159973145,-1.1507568359375,-6.793991565704346,0.005420883186161518,0.10034465789794922,-1.983483076095581,-0.84,0.49,5.06,-0.02,0.01,-0.03
97040.831,410998548,290255369,89.21,0.1900000125169754,-2.004000186920166,0,-0.10841946303844452,-0.02735750563442707,-0.04330437630414963,-0.08528146892786027,-0.1786678284406662,-9.527687072753906,NaN,NaN,NaN,-2.30319881439209,-1.1306228637695312,-7.009918689727783,-0.0009743762202560902,0.10647426545619965,-1.9646984338760376,-1.54,0.09999999999999998,4.74,-0.02,0.01,-0.03
97140.831,410998548,290255369,89.21,0.1900000125169754,-2.004000186920166,0,0.03385580703616142,0.009712005034089088,-0.03974428400397301,0.04141668602824211,-0.22327861189842224,-9.410771369934082,NaN,NaN,NaN,-2.306704044342041,-1.1091803312301636,-7.221487522125244,0.006318620871752501,0.12063600867986679,-1.9428106546401978,-1.45,0.2,4.5,-0.02,0.01,-0.03
97240.831,410998548,290255373,89.53,0.07400000095367432,-1.88100004196167,0,0.0318232998251915,0.0770246759057045,-0.031235989183187485,0.12603013217449188,0.12675465643405914,-9.526308059692383,NaN,NaN,NaN,-2.3134188652038574,-1.0873838663101196,-7.435207843780518,0.011693043634295464,0.14517025649547577,-1.9310423135757446,-1.05,0.5,4.43,-0.02,0.01,-0.03
97340.831,410998548,290255373,89.53,0.07400000095367432,-1.88100004196167,0,-0.047727905213832855,-0.03406573459506035,0.020778698846697807,0.11174002289772034,0.13259707391262052,-9.586962699890137,NaN,NaN,NaN,-2.3208224773406982,-1.0658620595932007,-7.64155387878418,-0.000999392825178802,0.1599411964416504,-1.9184036254882812,-1.22,0.6,4.63,-0.02,0.01,-0.03
97440.831,410998550,290255376,89.84,0.06200000271201134,-1.9440001249313354,0,-0.1420624703168869,-0.06476245075464249,0.04959600418806076,-0.023711316287517548,-0.02489979937672615,-9.668362617492676,NaN,NaN,NaN,-2.325453996658325,-1.0453665256500244,-7.853435516357422,0.005322083365172148,0.15933839976787567,-1.9001282453536987,-1.97,0.34,5.11,-0.02,0.01,-0.03
97540.831,410998550,290255376,89.84,0.06200000271201134,-1.9440001249313354,0,-0.1531643122434616,0.042999085038900375,0.07729414850473404,0.1162167489528656,0.07520530372858047,-9.57594108581543,NaN,NaN,NaN,-2.32735276222229,-1.0272449254989624,-8.05952262878418,0.01194394938647747,0.1495128720998764,-1.897834300994873,-3.01,0.28,5.6,-0.02,0.01,-0.03
97640.831,410998550,290255380,90.15,0.14000000059604645,-1.8530000448226929,0,0.002951007802039385,0.08896432816982269,0.09398839622735977,0.11474253982305527,0.07775727659463882,-9.577276229858398,NaN,NaN,NaN,-2.325803279876709,-1.015946626663208,-8.267850875854492,0.016332285478711128,0.1323583871126175,-1.8981751203536987,-3.11,0.79,5.97,-0.02,0.01,-0.03
97740.831,410998550,290255380,90.15,0.14000000059604645,-1.8530000448226929,0,0.09718020260334015,0.09644410014152527,0.07048621028661728,-0.043991658836603165,-0.08803952485322958,-9.607906341552734,NaN,NaN,NaN,-2.323627471923828,-1.0077922344207764,-8.468445777893066,0.012354289181530476,0.1083705946803093,-1.899572730064392,-2.61,1.27,6.33,-0.02,0.01,-0.03
97840.831,410998550,290255383,90.44,0.0860000029206276,-1.7960001230239868,0,-0.005040699150413289,-0.10344716161489487,0.06882043927907944,-0.03233185410499573,0.1383548378944397,-9.798114776611328,NaN,NaN,NaN,-2.325761556625366,-0.9966131448745728,-8.674774169921875,0.0012781983241438866,0.08971152454614639,-1.898759365081787,-2.61,0.77,6.72,-0.02,0.01,-0.03
97940.831,410998550,290255383,90.44,0.0860000029206276,-1.7960001230239868,0,-0.16350068151950836,-0.14518728852272034,0.04436502233147621,0.12068253010511398,0.10308228433132172,-9.742708206176758,NaN,NaN,NaN,-2.32714581489563,-0.9877674579620361,-8.880603790283203,0.005592199042439461,0.04908102750778198,-1.9098604917526245,-3.64,0.49,6.95,-0.02,0.01,-0.03
