timestamp(ms),GPS.Lat,GPS.Lng,GPS.Alt,GPS.Spd,GPS.VZ,GPS.Yaw,IMU[0].GyrX,IMU[0].GyrY,IMU[0].GyrZ,IMU[0].AccX,IMU[0].AccY,IMU[0].AccZ,IMU[0].GHz,ORGN[0].Lat,ORGN[0].Lng,ORGN[0].Alt,XKF1[0].PN,XKF1[0].PE,XKF1[0].PD,XKF1[0].VN,XKF1[0].VE,XKF1[0].VD,XKF1[0].Roll,XKF1[0].Pitch,XKF1[0].Yaw
109040.145,410998867,290255276,82.34,0.021000001579523087,0.03200000151991844,0,0.0005842001410201192,0.0005704545765183866,-0.0007139960653148592,-0.011077096685767174,-0.017558472231030464,-9.728769302368164,8001,410999060,290255149,86.22,-2.014336585998535,1.1341768503189087,-0.21784290671348572,-0.02105071023106575,-0.015367051586508751,-0.015382467769086361,-1.54,0.24,356.43
109140.145,410998867,290255276,82.34,0.021000001579523087,0.03200000151991844,0,0.0003741041000466794,0.0009245319524779916,-0.0016500724013894796,-0.007939759641885757,-0.005242364946752787,-9.731698036193848,8001,410999060,290255149,86.22,-2.0201234817504883,1.130790114402771,-0.21773025393486023,-0.020883753895759583,-0.015609251335263252,-0.014144159853458405,-1.54,0.23,356.43
109240.145,410998867,290255276,82.33,0.023000001907348633,0.05400000140070915,0,0.00209888257086277,0.0013077370822429657,0.0002115428214892745,-0.019583357498049736,-0.004195094108581543,-9.749125480651855,8001,410999060,290255149,86.22,-2.0201234817504883,1.130790114402771,-0.21773025393486023,-0.020883753895759583,-0.015609251335263252,-0.014144159853458405,-1.54,0.23,356.43
109340.145,410998867,290255276,82.33,0.023000001907348633,0.05400000140070915,0,0.0010568542638793588,-0.00048733767471276224,0.0011416311608627439,-0.001084315124899149,-0.006700439844280481,-9.759836196899414,8001,410999060,290255149,86.22,-2.0259034633636475,1.1277302503585815,-0.2159864604473114,-0.020219868049025536,-0.015054493211209774,-0.013924889266490936,-1.53,0.23,356.43
109440.145,410998866,290255275,82.32,0.012000000104308128,0.05000000074505806,0,0.0018271694425493479,0.0005578440031968057,0.0007495529134757817,-0.01728181540966034,-0.004556106403470039,-9.750045776367188,8001,410999060,290255149,86.22,-2.031266927719116,1.1245203018188477,-0.21389803290367126,-0.019409552216529846,-0.014337567612528801,-0.012771821580827236,-1.53,0.23,356.43
109540.145,410998866,290255275,82.32,0.012000000104308128,0.05000000074505806,0,-0.0005859555676579475,-0.00013884111831430346,0.001154785044491291,-0.01722528599202633,-0.00787349883466959,-9.752476692199707,8001,410999060,290255149,86.22,-2.0356385707855225,1.1215133666992188,-0.21142157912254333,-0.017982833087444305,-0.013940375298261642,-0.012308001518249512,-1.53,0.23,356.43
109640.145,410998865,290255274,82.31,0.018000001087784767,0.04200000315904617,0,0.00009795446385396644,0.00010028164979303256,-0.0020783105865120888,-0.006959935184568167,-0.006401128135621548,-9.74670696258545,8001,,,,-2.040224313735962,1.118454098701477,-0.2091676890850067,-0.016871431842446327,-0.013638647273182869,-0.011455520987510681,-1.53,0.23,356.43
109740.145,410998865,290255274,82.31,0.018000001087784767,0.04200000315904617,0,-0.001677424879744649,0.001292302506044507,-0.0001364966155961156,-0.011049461551010609,0.0011967881582677364,-9.740412712097168,8001,,,,-2.043793201446533,1.1158936023712158,-0.20884904265403748,-0.01567811518907547,-0.013049526140093803,-0.010815029963850975,-1.54,0.23,356.43
109840.145,410998864,290255274,82.31,0.020000001415610313,0.00800000037997961,0,-0.00014638606808148324,0.001045482000336051,0.0004469864070415497,-0.023190809413790703,-0.00805625505745411,-9.716092109680176,8001,,,,-2.049041271209717,1.1123603582382202,-0.20679423213005066,-0.015810150653123856,-0.012818722985684872,-0.009043709374964237,-1.54,0.23,356.44
109940.145,410998864,290255274,82.31,0.020000001415610313,0.00800000037997961,0,0.0005526724271476269,0.0006159517215564847,-0.000122739453217946,-0.0047316402196884155,0.0019912803545594215,-9.737451553344727,8001,,,,-2.053690195083618,1.109145164489746,-0.2049560248851776,-0.015114609152078629,-0.012596122920513153,-0.00828781072050333,-1.54,0.24,356.44
110040.145,410998863,290255273,82.3,0.005000000353902578,0.03200000151991844,0,0.00154453469440341,0.0013527662958949804,-0.00011141751747345552,-0.02073279395699501,-0.005099875386804342,-9.738259315490723,8001,,,,-2.0594406127929688,1.106529951095581,-0.20177337527275085,-0.015615714713931084,-0.012428395450115204,-0.007711954414844513,-1.54,0.24,356.44
110140.145,410998863,290255273,82.3,0.005000000353902578,0.03200000151991844,0,0.001200189464725554,0.0006436684052459896,-0.001399810193106532,-0.014895377680659294,-0.0023855308536440134,-9.747822761535645,8001,,,,-2.064396381378174,1.1044721603393555,-0.19921287894248962,-0.01551396120339632,-0.012012775987386703,-0.007150307297706604,-1.53,0.24,356.44
110240.145,410998863,290255272,82.28,0.006000000052154064,0.04500000178813934,0,0.00015010120114311576,0.0003592597786337137,0.00010871330596273765,-0.007361757103353739,-0.01593584567308426,-9.741600036621094,8001,,,,-2.0700812339782715,1.1017414331436157,-0.19680318236351013,-0.015311631374061108,-0.011668380349874496,-0.006942806299775839,-1.53,0.24,356.44
110340.145,410998863,290255272,82.28,0.006000000052154064,0.04500000178813934,0,0.0005358632770366967,-0.0004534872423391789,-0.00022091589926276356,-0.012603715993463993,-0.02095077559351921,-9.753149032592773,8001,,,,-2.074871778488159,1.0992746353149414,-0.1952553689479828,-0.015179258771240711,-0.011675977148115635,-0.006441586185246706,-1.53,0.24,356.44
110440.145,410998862,290255271,82.27,0.030000001192092896,-0.015000000596046448,0,0.0024465618189424276,0.0009870895883068442,0.0012484670151025057,-0.005359523929655552,0.0002917223027907312,-9.73324966430664,8001,,,,-2.080848217010498,1.0958377122879028,-0.19334813952445984,-0.01525791920721531,-0.011755845509469509,-0.005540493875741959,-1.53,0.24,356.44
110540.145,410998862,290255271,82.27,0.030000001192092896,-0.015000000596046448,0,0.00036161381285637617,-0.0014083492569625378,-0.0005495533114299178,-0.004828869365155697,-0.012982344254851341,-9.74506950378418,8001,,,,-2.085304021835327,1.092991828918457,-0.191879004240036,-0.014354812912642956,-0.012384273111820221,-0.005405486095696688,-1.53,0.24,356.44
110640.145,410998861,290255270,82.26,0.036000002175569534,-0.026000000536441803,0,0.0008894087513908744,0.0014816425973549485,-0.001561436802148819,-0.007284917403012514,-0.00250934693031013,-9.746901512145996,8001,,,,-2.0916597843170166,1.089490294456482,-0.19121405482292175,-0.015267213806509972,-0.012470117770135403,-0.00535449106246233,-1.53,0.24,356.44
110740.145,410998861,290255270,82.26,0.036000002175569534,-0.026000000536441803,0,-0.0013733257073909044,0.0005250047543086112,0.0008788425475358963,-0.012053905986249447,0.006894564721733332,-9.752928733825684,8001,,,,-2.0974013805389404,1.086382508277893,-0.19116494059562683,-0.015807781368494034,-0.012374155223369598,-0.0058724465779960155,-1.54,0.24,356.44
110840.145,410998861,290255269,82.26,0.03500000014901161,0.013000000268220901,0,-0.0001643078721826896,0.0007852581329643726,0.0008063184795901179,-0.01599612459540367,-0.009320680983364582,-9.75013542175293,8001,,,,-2.102327585220337,1.083213448524475,-0.1937088668346405,-0.015440438874065876,-0.011889351531863213,-0.007524534594267607,-1.54,0.24,356.44
110940.145,410998861,290255269,82.26,0.03500000014901161,0.013000000268220901,0,0.0005940347327850759,0.0001257767144124955,-0.0002474149514455348,-0.011698789894580841,0.001538311131298542,-9.738686561584473,8001,,,,-2.10613751411438,1.080573320388794,-0.19679591059684753,-0.014822622761130333,-0.011407418176531792,-0.008116173557937145,-1.54,0.24,356.44
111040.145,410998860,290255268,82.24,0.02500000037252903,0.017000000923871994,0,-0.00027724122628569603,0.0005956212989985943,0.00009812322969082743,0.0033696016762405634,-0.01014755479991436,-9.743024826049805,8001,,,,-2.109663248062134,1.0772582292556763,-0.1982693374156952,-0.012495456263422966,-0.01157060544937849,-0.007596183568239212,-1.54,0.23,356.44
111140.145,410998860,290255268,82.24,0.02500000037252903,0.017000000923871994,0,-0.0008541031274944544,0.0019492629216983914,-0.0005436931387521327,-0.011398891918361187,-0.002519911853596568,-9.7443208694458,8001,,,,-2.111974000930786,1.0746562480926514,-0.19998356699943542,-0.010817371308803558,-0.011552317067980766,-0.008828354999423027,-1.54,0.23,356.44
111240.145,410998860,290255267,82.23,0.013000000268220901,0.010000000707805157,0,0.0007077409536577761,0.0012953931000083685,-0.0010140836238861084,-0.0030676566530019045,-0.009361904114484787,-9.734606742858887,8001,,,,-2.1159608364105225,1.070180058479309,-0.20186743140220642,-0.009535755962133408,-0.01223080325871706,-0.008229406550526619,-1.54,0.23,356.44
111340.145,410998860,290255267,82.23,0.013000000268220901,0.010000000707805157,0,-0.0008888541487976909,0.0006920793675817549,-0.00042811312596313655,-0.012956186197698116,-0.007338901050388813,-9.73322868347168,8001,,,,-2.1190409660339355,1.0663312673568726,-0.20258697867393494,-0.008892596699297428,-0.013016668148338795,-0.008449999615550041,-1.54,0.23,356.43
111440.145,410998859,290255266,82.22,0.04100000113248825,-0.08500000089406967,0,0.00046513197594322264,0.0004445764352567494,0.0008075727382674813,-0.003178428625687957,-0.01090286299586296,-9.743683815002441,8001,,,,-2.122861385345459,1.0625497102737427,-0.20307216048240662,-0.008176577277481556,-0.013248784467577934,-0.00924021564424038,-1.55,0.23,356.43
111540.145,410998859,290255266,82.22,0.04100000113248825,-0.08500000089406967,0,0.0005171771044842899,0.00012594916915986687,0.0002649512607604265,-0.006652805022895336,-0.003314674599096179,-9.743566513061523,8001,,,,-2.126028299331665,1.0593708753585815,-0.20272085070610046,-0.007667255587875843,-0.013653595931828022,-0.009365011937916279,-1.54,0.23,356.44
111640.145,410998859,290255266,82.22,0.013000000268220901,0.026000000536441803,0,0.0009211973519995809,0.00042894415673799813,0.00019804330077022314,-0.007453107740730047,-0.004658760968595743,-9.745749473571777,8001,,,,-2.129464864730835,1.0568797588348389,-0.20436272025108337,-0.006524052005261183,-0.012542800046503544,-0.010934199206531048,-1.54,0.23,356.44
111740.145,410998859,290255266,82.22,0.013000000268220901,0.026000000536441803,0,0.0001880137133412063,0.0015853986842557788,-0.0006580683402717113,-0.003022023942321539,-0.0011531427735462785,-9.727127075195312,8001,,,,-2.132066011428833,1.0550291538238525,-0.2068171203136444,-0.004936963319778442,-0.01205164473503828,-0.01158417109400034,-1.54,0.23,356.44
111840.145,410998858,290255265,82.2,0.03400000184774399,0.04800000041723251,0,0.0004969386500306427,0.0009864669991657138,0.00028404677868820727,-0.013822014443576336,-0.02039777860045433,-9.731941223144531,8001,,,,-2.136042594909668,1.051668405532837,-0.20786580443382263,-0.004169055726379156,-0.012082064524292946,-0.01180845033377409,-1.54,0.23,356.44
111940.145,410998858,290255265,82.2,0.03400000184774399,0.04800000041723251,0,0.0005035721114836633,-0.00037119531771168113,-0.00042483219294808805,-0.01508990116417408,-0.005842901300638914,-9.719120025634766,8001,,,,-2.138899326324463,1.0488284826278687,-0.20895978808403015,-0.004024911671876907,-0.012345222756266594,-0.012438436038792133,-1.54,0.23,356.44
112040.145,410998858,290255265,82.19,0.0430000014603138,-0.00800000037997961,0,0.0017771066632121801,0.000085632927948609,0.0011639920994639397,-0.015375079587101936,-0.004760477691888809,-9.739253044128418,8001,,,,-2.1417527198791504,1.045425534248352,-0.21240970492362976,-0.0030374862253665924,-0.01246991753578186,-0.013710827566683292,-1.54,0.22,356.43
112140.145,410998858,290255265,82.19,0.0430000014603138,-0.00800000037997961,0,-0.00022548889683093876,-0.0008491961052641273,-0.0016339208232238889,-0.004526995122432709,-0.012596001848578453,-9.748575210571289,8001,,,,-2.143791675567627,1.042435884475708,-0.21651455760002136,-0.0015299018705263734,-0.012751145288348198,-0.015193736180663109,-1.54,0.22,356.43
112240.145,410998858,290255264,82.19,0.021000001579523087,-0.04400000348687172,0,0.00030533125391229987,0.0014472079928964376,-0.0015424517914652824,-0.0054269516840577126,-0.0016081967623904347,-9.742077827453613,8001,,,,-2.14583420753479,1.0399552583694458,-0.22001716494560242,0.0005167601048015058,-0.01228854339569807,-0.015773454681038857,-1.54,0.22,356.43
112340.145,410998858,290255264,82.19,0.021000001579523087,-0.04400000348687172,0,-0.000024856266463757493,0.0004001364577561617,-0.0004968857392668724,-0.012674834579229355,-0.01129351556301117,-9.733180046081543,8001,,,,-2.147129535675049,1.0380165576934814,-0.2230834662914276,0.0023345816880464554,-0.011963282711803913,-0.016155103221535683,-1.54,0.22,356.43
112440.145,410998857,290255263,82.19,0.012000000104308128,0.04100000113248825,0,-0.0005825742264278233,-0.00035113474586978555,0.0003204895765520632,-0.004408464301377535,-0.002608814276754856,-9.73726749420166,8000,,,,-2.1493947505950928,1.0349137783050537,-0.22654804587364197,0.0037788066547363997,-0.01182425208389759,-0.017200443893671036,-1.53,0.22,356.43
112540.145,410998857,290255263,82.19,0.012000000104308128,0.04100000113248825,0,0.000052536604925990105,-0.0006315468926914036,0.00048626988427713513,-0.0040556625463068485,-0.008599932305514812,-9.717816352844238,8000,,,,-2.15067982673645,1.032338261604309,-0.23127886652946472,0.005242116749286652,-0.011807810515165329,-0.01760226860642433,-1.53,0.22,356.43
112640.145,410998857,290255263,82.18,0.03200000151991844,0.021000001579523087,0,0.002194993896409869,0.0016496996395289898,0.00012931953824590892,-0.00650795130059123,-0.00806489773094654,-9.71843433380127,8000,,,,-2.1548690795898438,1.0288466215133667,-0.23220691084861755,0.0050755636766552925,-0.011431046761572361,-0.0164655614644289,-1.53,0.22,356.43
112740.145,410998857,290255263,82.18,0.03200000151991844,0.021000001579523087,0,0.00039135885890573263,-0.0006767663871869445,-0.00033376424107700586,-0.002521377755329013,-0.0098480936139822,-9.731528282165527,8000,,,,-2.1576285362243652,1.0261366367340088,-0.23424085974693298,0.0054155136458575726,-0.011459442786872387,-0.01558975875377655,-1.53,0.22,356.43
112840.145,410998856,290255262,82.16,0.02500000037252903,0.02200000174343586,0,0.001653117942623794,0.0007320703589357436,-0.0005976283573545516,-0.012184214778244495,-0.017813196405768394,-9.733522415161133,8000,,,,-2.1629831790924072,1.0238840579986572,-0.23581501841545105,0.004772770218551159,-0.010570122860372066,-0.015950486063957214,-1.53,0.22,356.43
112940.145,410998856,290255262,82.16,0.02500000037252903,0.02200000174343586,0,0.0005965298041701317,-0.00024378515081480145,0.00019961594080086797,-0.013350888155400753,0.0034071689005941153,-9.733622550964355,8000,,,,-2.1666600704193115,1.0222325325012207,-0.23789986968040466,0.004187760874629021,-0.009525200352072716,-0.01640995964407921,-1.53,0.22,356.43
113040.145,410998855,290255261,82.14,0.013000000268220901,0.012000000104308128,0,0.002564653055742383,0.0004989022854715586,0.000538106425665319,0.005324252415448427,-0.023920265957713127,-9.746801376342773,8000,,,,-2.170966625213623,1.0188897848129272,-0.23922476172447205,0.004646731074899435,-0.010012457147240639,-0.016594842076301575,-1.53,0.23,356.44
113140.145,410998855,290255261,82.14,0.013000000268220901,0.012000000104308128,0,-0.00036478444235399365,-0.00021514276158995926,0.00046306196600198746,-0.0008178899297490716,-0.004406105261296034,-9.754895210266113,8000,,,,-2.1734113693237305,1.016361117362976,-0.24017271399497986,0.005943371448665857,-0.009807122871279716,-0.017082160338759422,-1.53,0.22,356.44
113240.145,410998855,290255261,82.13,0.00800000037997961,0.03400000184774399,0,-0.0007798340520821512,0.0008541287388652563,-0.0005779835046269,-0.011357997544109821,-0.007519957143813372,-9.751419067382812,8000,,,,-2.177988290786743,1.0134130716323853,-0.24029311537742615,0.0047630066983401775,-0.009549668990075588,-0.017128847539424896,-1.53,0.23,356.44
113340.145,410998855,290255261,82.13,0.00800000037997961,0.03400000184774399,0,0.0006190017447806895,-0.0011583463056012988,0.00030321028316393495,-0.016811296343803406,0.000235310013522394,-9.745847702026367,8000,,,,-2.181072473526001,1.0111253261566162,-0.24128875136375427,0.004863197915256023,-0.00964383315294981,-0.01863037422299385,-1.53,0.23,356.44
113440.145,410998854,290255260,82.12,0.005000000353902578,0.023000001907348633,0,-0.00009699171641841531,0.0015849648043513298,0.00040366084431298077,-0.011345304548740387,-0.007085240446031094,-9.752504348754883,8000,,,,-2.185471534729004,1.008069634437561,-0.24128279089927673,0.004301732871681452,-0.009499074891209602,-0.01826396957039833,-1.53,0.23,356.44
113540.145,410998854,290255260,82.12,0.005000000353902578,0.023000001907348633,0,-0.0002742221695370972,0.0004508426645770669,0.000849888485390693,0.0002655773132573813,-0.0008920017862692475,-9.752494812011719,8000,,,,-2.1883938312530518,1.0056813955307007,-0.2412632405757904,0.004318735562264919,-0.009659792296588421,-0.018256084993481636,-1.53,0.23,356.44
113640.145,410998854,290255259,82.09,0.01600000075995922,-0.024000000208616257,0,0.0014824456302449107,0.001598880859091878,0.0002043019194388762,-0.01850954070687294,-0.019000153988599777,-9.750432014465332,8000,,,,-2.192925214767456,1.002238392829895,-0.23957392573356628,0.0034306063316762447,-0.009665888734161854,-0.017583923414349556,-1.53,0.24,356.44
113740.145,410998854,290255259,82.09,0.01600000075995922,-0.024000000208616257,0,0.0009061811142601073,0.0005236427532508969,0.000991228618659079,0.003383972914889455,-0.015061548911035061,-9.735426902770996,8000,,,,-2.195955276489258,0.9995604157447815,-0.23860999941825867,0.003443318884819746,-0.009960995055735111,-0.016749968752264977,-1.53,0.23,356.44
113840.145,410998854,290255258,82.09,0.030000001192092896,0.024000000208616257,0,0.0007000499754212797,-0.0006369441980496049,0.00012595695443451405,-0.01002705842256546,-0.010576486587524414,-9.73988151550293,8000,,,,-2.201083183288574,0.9963733553886414,-0.23917612433433533,0.0025074398145079613,-0.010280014015734196,-0.016649510711431503,-1.53,0.24,356.44
113940.145,410998854,290255258,82.09,0.030000001192092896,0.024000000208616257,0,-0.00007379379530902952,-0.0011301574995741248,0.0002558934211265296,-0.0006509223021566868,-0.012719198130071163,-9.73443603515625,8000,,,,-2.2046687602996826,0.9938946962356567,-0.239883154630661,0.0016487245447933674,-0.010654802434146404,-0.015826571732759476,-1.53,0.24,356.44
114040.145,410998853,290255257,82.08,0.004000000189989805,-0.005000000353902578,0,-0.00029470285517163575,-0.0010422986233606935,0.00038519417284987867,-0.012383969500660896,0.002097793621942401,-9.74722671508789,8000,,,,-2.207960367202759,0.9902397394180298,-0.23994585871696472,0.0013234965736046433,-0.010540499351918697,-0.015500722452998161,-1.53,0.24,356.43
114140.145,410998853,290255257,82.08,0.004000000189989805,-0.005000000353902578,0,-0.00004473340231925249,-0.0002450247120577842,-0.0012388090835884213,-0.013788738287985325,-0.004755280911922455,-9.744070053100586,8000,,,,-2.2101943492889404,0.9871809482574463,-0.24107465147972107,0.0013869783142581582,-0.011199796572327614,-0.0157321710139513,-1.53,0.24,356.43
114240.145,410998853,290255256,82.07,0.009000000543892384,-0.012000000104308128,0,-0.00017791573191061616,-0.00036237467429600656,-0.000621887797024101,-0.011348122730851173,-0.010135602205991745,-9.733839988708496,8000,,,,-2.213958978652954,0.9831207394599915,-0.24351951479911804,0.0009298730292357504,-0.011305944062769413,-0.016162484884262085,-1.53,0.24,356.43
114340.145,410998853,290255256,82.07,0.009000000543892384,-0.012000000104308128,0,0.000875404744874686,-0.0010880629997700453,-0.00033385719871148467,-0.015350595116615295,-0.005531345494091511,-9.735115051269531,8000,,,,-2.216805934906006,0.9797855615615845,-0.24650904536247253,0.00030742751550860703,-0.011118203401565552,-0.016888152807950974,-1.53,0.24,356.43
114440.145,410998852,290255255,82.06,0.039000000804662704,0.05000000074505806,0,0.0008761400240473449,0.0010954667814075947,-0.0004846158844884485,-0.006199034396559,-0.009067036211490631,-9.760321617126465,8000,,,,-2.2205867767333984,0.9754510521888733,-0.25085100531578064,0.00023966588196344674,-0.011562319472432137,-0.018450213596224785,-1.52,0.25,356.43
114540.145,410998852,290255255,82.06,0.039000000804662704,0.05000000074505806,0,0.0010035355808213353,0.0007910383283160627,0.000897254969459027,-0.009505409747362137,-0.013508200645446777,-9.748204231262207,8000,,,,-2.223337411880493,0.9718651175498962,-0.25650808215141296,0.000052248647989472374,-0.01181198749691248,-0.019449850544333458,-1.53,0.25,356.43
114640.145,410998851,290255254,82.04,0.03400000184774399,0.01600000075995922,0,-0.0002622163447085768,-0.0009617548785172403,0.0004660249687731266,-0.013911175541579723,-0.004719804041087627,-9.737899780273438,8000,,,,-2.2286293506622314,0.9665130376815796,-0.25935038924217224,-0.0017774112056940794,-0.01287258230149746,-0.01957547292113304,-1.53,0.25,356.42
114740.145,410998851,290255254,82.04,0.03400000184774399,0.01600000075995922,0,-1.7177781330701691e-7,0.00019458022143226117,-0.000522193091455847,-0.007440763991326094,0.0021227975375950336,-9.751458168029785,8000,,,,-2.232954740524292,0.9619651436805725,-0.263109415769577,-0.0033483211882412434,-0.013676084578037262,-0.020361730828881264,-1.53,0.25,356.42
114840.145,410998850,290255254,82.03,0.04100000113248825,-0.007000000216066837,0,-0.000025007615477079526,0.00037867206265218556,0.0018386986339464784,-0.013846675865352154,-0.008961687795817852,-9.737881660461426,8000,,,,-2.2396979331970215,0.9578984379768372,-0.2661113440990448,-0.00543118454515934,-0.01383216679096222,-0.02006026916205883,-1.53,0.26,356.42
114940.145,410998850,290255254,82.03,0.04100000113248825,-0.007000000216066837,0,0.0011146091856062412,0.0009193416335619986,-0.0007166851428337395,-0.013857400976121426,-0.014916464686393738,-9.744512557983398,8000,,,,-2.2443997859954834,0.9549919366836548,-0.26850053668022156,-0.006817502435296774,-0.013735678046941757,-0.020137853920459747,-1.53,0.26,356.43
115040.145,410998849,290255254,82.02,0.015000000596046448,0.01900000125169754,0,-0.0007312326924875379,-0.0010993763571605086,0.0006638178019784391,-0.017717009410262108,-0.011997999623417854,-9.751265525817871,8000,,,,-2.2508761882781982,0.953016996383667,-0.26944443583488464,-0.00949107762426138,-0.012733791954815388,-0.020761331543326378,-1.53,0.26,356.43
115140.145,410998849,290255254,82.02,0.015000000596046448,0.01900000125169754,0,0.0004218682588543743,0.001049389480613172,-0.00022254949726630002,-0.008082098327577114,-0.012593666091561317,-9.738870620727539,8000,,,,-2.25581431388855,0.9515112638473511,-0.27044305205345154,-0.01065037865191698,-0.012044040486216545,-0.019946321845054626,-1.52,0.26,356.43
115240.145,410998849,290255253,82,0.02200000174343586,0.02500000037252903,0,-0.000043765336158685386,-0.00002840493652911391,0.00010822265176102519,-0.013641443103551865,-0.014739127829670906,-9.748392105102539,8000,,,,-2.2617170810699463,0.9481062293052673,-0.2712014615535736,-0.012233752757310867,-0.0112572330981493,-0.01920902729034424,-1.52,0.27,356.44
115340.145,410998849,290255253,82,0.02200000174343586,0.02500000037252903,0,0.00010501194628886878,0.0016607468714937568,0.000685845734551549,-0.022497057914733887,0.0032744882628321648,-9.732318878173828,8000,,,,-2.266239643096924,0.9455596208572388,-0.2727695405483246,-0.013574477285146713,-0.010755284689366817,-0.018688807263970375,-1.53,0.27,356.45
115440.145,410998848,290255252,81.98,0.009000000543892384,0.023000001907348633,0,0.0007909726700745523,0.0009830859489738941,0.0013077909825369716,-0.00641328189522028,-0.0073757898062467575,-9.745244026184082,8000,,,,-2.272416591644287,0.9418685436248779,-0.27195605635643005,-0.014736703597009182,-0.010958623141050339,-0.018351582810282707,-1.53,0.27,356.45
115540.145,410998848,290255252,81.98,0.009000000543892384,0.023000001907348633,0,0.0010001080809161067,0.0012245122343301773,0.00012191602581879124,-0.014407685957849026,-0.0031285227742046118,-9.747300148010254,8000,,,,-2.27720046043396,0.9389799237251282,-0.2726677358150482,-0.016109861433506012,-0.011379987932741642,-0.018585629761219025,-1.53,0.27,356.45
115640.145,410998847,290255250,81.97,0.039000000804662704,0.03500000014901161,0,-0.0009065417689271271,0.0008597500273026526,-0.0018423288129270077,-0.005064343102276325,-0.003172159194946289,-9.745637893676758,8000,,,,-2.2820634841918945,0.9351083636283875,-0.2733573615550995,-0.015938766300678253,-0.011665575206279755,-0.018461598083376884,-1.53,0.27,356.45
115740.145,410998847,290255250,81.97,0.039000000804662704,0.03500000014901161,0,0.000144924531923607,-0.00037043666816316545,0.0010678074322640896,-0.012410189025104046,-0.008293166756629944,-9.751327514648438,8000,,,,-2.2857449054718018,0.9320747256278992,-0.27400490641593933,-0.015715019777417183,-0.012046092189848423,-0.01889790967106819,-1.53,0.27,356.44
115840.145,410998847,290255249,81.95,0.010000000707805157,-0.0010000000474974513,0,0.0010555493645370007,0.00020516167569439858,-0.0012051305966451764,-0.008554982952773571,-0.012149003334343433,-9.72881031036377,8000,,,,-2.291018486022949,0.9260446429252625,-0.27338382601737976,-0.016358109191060066,-0.013660630211234093,-0.01757911406457424,-1.53,0.27,356.44
115940.145,410998847,290255249,81.95,0.010000000707805157,-0.0010000000474974513,0,0.00011072141933254898,-0.0009261309751309454,0.0006376205128617585,-0.019427623599767685,-0.00007628933235537261,-9.75029468536377,8000,,,,-2.294968843460083,0.9213919043540955,-0.27332934737205505,-0.016884496435523033,-0.014618472196161747,-0.0172027088701725,-1.53,0.27,356.44
116040.145,410998847,290255249,81.95,0.04800000041723251,-0.003000000026077032,0,0.0005726523231714964,-0.0019368152134120464,-0.0007652801577933133,-0.002866053720936179,-0.013109271414577961,-9.744406700134277,8000,,,,-2.29915189743042,0.9165644645690918,-0.2732815444469452,-0.01656980812549591,-0.01544212270528078,-0.01651724800467491,-1.53,0.27,356.44
116140.145,410998847,290255249,81.95,0.04800000041723251,-0.003000000026077032,0,0.0012385250302031636,0.0005013091140426695,-0.0006383819272741675,-0.004657872952520847,-0.015210711397230625,-9.75889778137207,8000,,,,-2.302337646484375,0.9127224087715149,-0.2726442515850067,-0.01624477468430996,-0.016182228922843933,-0.016294974833726883,-1.53,0.27,356.44
116240.145,410998846,290255248,81.92,0.03700000047683716,0.04400000348687172,0,-0.0005041796248406172,0.000001955966808964149,0.0011884361738339067,-0.0031317928805947304,-0.015989160165190697,-9.723905563354492,8000,,,,-2.304210901260376,0.9096649289131165,-0.2707594335079193,-0.01436739694327116,-0.01554447878152132,-0.015609756112098694,-1.53,0.26,356.44
116340.145,410998846,290255248,81.92,0.03700000047683716,0.04400000348687172,0,-0.000037196296034380794,-0.000951331399846822,0.000013869074791728053,-0.009510121308267117,0.006794875022023916,-9.737125396728516,8000,,,,-2.3054909706115723,0.9073260426521301,-0.27031585574150085,-0.013292845338582993,-0.014706427231431007,-0.015225822106003761,-1.53,0.26,356.44
116440.145,410998846,290255247,81.91,0.013000000268220901,0.06800000369548798,0,-0.0003884359321091324,0.00047583109699189663,0.0006335304351523519,-0.001769358292222023,0.009587634354829788,-9.74211597442627,8001,,,,-2.3092052936553955,0.9024902582168579,-0.2685564458370209,-0.01282651349902153,-0.01521299872547388,-0.014356388710439205,-1.53,0.26,356.44
116540.145,410998846,290255247,81.91,0.013000000268220901,0.06800000369548798,0,-0.0008134111412800848,0.0008301516063511372,-0.0008565479074604809,-0.003358065616339445,-0.0007146709249354899,-9.74958610534668,8001,,,,-2.312012195587158,0.8986346125602722,-0.26766905188560486,-0.012813336215913296,-0.015651147812604904,-0.014553860761225224,-1.54,0.27,356.44
116640.145,410998845,290255246,81.89,0.021000001579523087,-0.012000000104308128,0,0.0021593826822936535,0.0002494686923455447,0.00014131490024738014,-0.010982259176671505,-0.004506703000515699,-9.752802848815918,8001,,,,-2.3160247802734375,0.8941852450370789,-0.2652643620967865,-0.01288999430835247,-0.01628340780735016,-0.013567989692091942,-1.54,0.27,356.43
116740.145,410998845,290255246,81.89,0.021000001579523087,-0.012000000104308128,0,-0.000485894299345091,-0.0019278336549177766,-0.00034953755675815046,-0.021301811560988426,0.00020228070206940174,-9.752214431762695,8001,,,,-2.3193368911743164,0.8904605507850647,-0.26476261019706726,-0.01251855120062828,-0.016311729326844215,-0.012577980756759644,-1.54,0.27,356.43
116840.145,410998844,290255246,81.87,0.03400000184774399,0.05000000074505806,0,0.0004981571692042053,-0.0010425422806292772,0.0000029582620300061535,-0.010542568750679493,0.0011719322064891458,-9.736916542053223,8001,,,,-2.3237979412078857,0.8869104385375977,-0.2635134160518646,-0.012883408926427364,-0.016172664240002632,-0.012596888467669487,-1.54,0.27,356.43
116940.145,410998844,290255246,81.87,0.03400000184774399,0.05000000074505806,0,0.000861288805026561,-0.000721114338375628,-0.0014439020305871964,0.0006141216144897044,-0.006456788629293442,-9.745475769042969,8001,,,,-2.3274433612823486,0.8840474486351013,-0.26147398352622986,-0.013213505037128925,-0.015688370913267136,-0.01188598107546568,-1.53,0.26,356.43
117040.145,410998844,290255245,81.86,0.010000000707805157,0.08000000566244125,0,0.0005867877043783665,-0.0005069198086857796,-0.00019901187624782324,-0.011708682402968407,-0.011603112332522869,-9.727744102478027,8001,,,,-2.330543279647827,0.8815497756004333,-0.2591417729854584,-0.012897023931145668,-0.015201606787741184,-0.010755576193332672,-1.53,0.26,356.43
117140.145,410998844,290255245,81.86,0.010000000707805157,0.08000000566244125,0,-0.001796219265088439,-0.0003781116392929107,0.0009395152446813881,-0.005542720668017864,-0.009890805929899216,-9.74807071685791,8001,,,,-2.3334310054779053,0.878944456577301,-0.256174772977829,-0.012513222172856331,-0.014739871956408024,-0.00942384172230959,-1.53,0.26,356.43
117240.145,410998844,290255245,81.85,0.018000001087784767,0.039000000804662704,0,0.0006999129545874894,0.0010918937623500824,-0.00037880989839322865,-0.005727742332965136,-0.011625103652477264,-9.732955932617188,8001,,,,-2.336592197418213,0.8755398988723755,-0.25252148509025574,-0.011910936795175076,-0.014478692784905434,-0.007045236881822348,-1.53,0.26,356.43
117340.145,410998844,290255245,81.85,0.018000001087784767,0.039000000804662704,0,-0.0019045856315642595,-0.0005325404345057905,-0.0008031070465222001,-0.006975618656724691,-0.005947475787252188,-9.744244575500488,8001,,,,-2.3392932415008545,0.8722551465034485,-0.2494966685771942,-0.011635662987828255,-0.014751515351235867,-0.005812330171465874,-1.53,0.26,356.43
117440.145,410998843,290255243,81.83,0.01900000125169754,-0.014000000432133675,0,0.0007697431137785316,-0.0005797661142423749,-0.0008403253741562366,-0.011736788786947727,-0.018521668389439583,-9.736699104309082,8001,,,,-2.342238426208496,0.8680785894393921,-0.24674996733665466,-0.011141262948513031,-0.01568043977022171,-0.004474659916013479,-1.53,0.25,356.43
117540.145,410998843,290255243,81.83,0.01900000125169754,-0.014000000432133675,0,-0.0006219898350536823,0.001944542396813631,0.000035332301195012406,-0.010977989993989468,-0.008380720391869545,-9.732945442199707,8001,,,,-2.3445560932159424,0.864452064037323,-0.24538907408714294,-0.010826473124325275,-0.016132129356265068,-0.0034402578603476286,-1.54,0.25,356.43
117640.145,410998843,290255243,81.82,0.018000001087784767,-0.0560000017285347,0,0.000639930076431483,-0.0004096250922884792,-0.00010359747102484107,-0.008655297569930553,-0.004295415710657835,-9.747425079345703,8001,,,,-2.3469467163085938,0.8599762320518494,-0.24490734934806824,-0.009982586838304996,-0.016512906178832054,-0.0029755840077996254,-1.54,0.25,356.43
117740.145,410998843,290255243,81.82,0.018000001087784767,-0.0560000017285347,0,-0.000463035044958815,-0.00023215473629534245,-0.0012889605714008212,-0.020993467420339584,-0.005960834678262472,-9.72680377960205,8001,,,,-2.3493826389312744,0.855775773525238,-0.24512597918510437,-0.009234670549631119,-0.017202675342559814,-0.002961477730423212,-1.54,0.24,356.42
117840.145,410998843,290255242,81.81,0.027000000700354576,0.024000000208616257,0,0.00039319967618212104,0.0021295249462127686,-0.0002050958719337359,-0.011261756531894207,-0.0007451665005646646,-9.7428560256958,8001,,,,-2.352753162384033,0.851618766784668,-0.24791046977043152,-0.00940004549920559,-0.01738199219107628,-0.004066756460815668,-1.54,0.25,356.42
117940.145,410998843,290255242,81.81,0.027000000700354576,0.024000000208616257,0,-0.0005869383458048105,0.00031026461510919034,0.00033624880597926676,-0.00815607700496912,-0.0030005592852830887,-9.757231712341309,8001,,,,-2.3554022312164307,0.8479548096656799,-0.2477686107158661,-0.009321535937488079,-0.017713584005832672,-0.004692867398262024,-1.54,0.25,356.42
118040.145,410998842,290255240,81.8,0.024000000208616257,-0.04400000348687172,0,0.0009078943985514343,-0.0014559166738763452,-0.0009098104201257229,-0.004469823092222214,-0.012272307649254799,-9.751930236816406,8001,,,,-2.3580048084259033,0.8430324196815491,-0.24546095728874207,-0.008580004796385765,-0.018339429050683975,-0.004159311763942242,-1.54,0.25,356.42
118140.145,410998842,290255240,81.8,0.024000000208616257,-0.04400000348687172,0,-0.0003582090139389038,-0.000029609593184432015,-0.0007416573353111744,-0.012664886191487312,-0.011371620930731297,-9.748162269592285,8001,,,,-2.3600783348083496,0.8386834263801575,-0.24287685751914978,-0.008171266876161098,-0.019040698185563087,-0.003249335801228881,-1.54,0.25,356.42
118240.145,410998841,290255240,81.81,0.04500000178813934,0.04700000211596489,0,-0.0007829790120013058,0.0004564349364954978,0.0008440662059001625,-0.017099056392908096,0.005157670937478542,-9.738382339477539,8001,,,,-2.362600326538086,0.8332433700561523,-0.24232229590415955,-0.007921203039586544,-0.0195456575602293,-0.0036222392227500677,-1.54,0.25,356.42
118340.145,410998841,290255240,81.81,0.04500000178813934,0.04700000211596489,0,-0.00045780849177390337,-0.0001961978996405378,0.0007344731129705906,-0.012059851549565792,0.00040928274393081665,-9.727871894836426,8001,,,,-2.364961862564087,0.8287329077720642,-0.242568701505661,-0.007869995199143887,-0.01987599954009056,-0.003378164954483509,-1.54,0.25,356.42
118440.145,410998840,290255239,81.77,0.03200000151991844,0.0020000000949949026,0,-0.00027299628709442914,0.0006870119832456112,0.00033663312206044793,-0.016589896753430367,-0.006964707747101784,-9.730488777160645,8001,,,,-2.3700547218322754,0.8245557546615601,-0.24177834391593933,-0.009495027363300323,-0.01997317001223564,-0.002280544489622116,-1.54,0.26,356.43
118540.145,410998840,290255239,81.77,0.03200000151991844,0.0020000000949949026,0,0.0003685397678054869,0.0013301410945132375,0.0005596319679170847,-0.010545569472014904,-0.015898870304226875,-9.733920097351074,8001,,,,-2.3743982315063477,0.8208591938018799,-0.23972806334495544,-0.01025942713022232,-0.020563285797834396,-0.0019566344562917948,-1.54,0.26,356.43
118640.145,410998840,290255238,81.76,0.0020000000949949026,0.01600000075995922,0,0.0003435398393776268,-0.00007084703247528523,-0.0007213933276943862,-0.0008909750613383949,-0.007083052769303322,-9.738395690917969,8001,,,,-2.3801379203796387,0.8163278102874756,-0.23664042353630066,-0.011454242281615734,-0.021116632968187332,-0.0006662639207206666,-1.54,0.26,356.43
118740.145,410998840,290255238,81.76,0.0020000000949949026,0.01600000075995922,0,-0.00038833063445053995,-0.000028142021619714797,-0.000842176959849894,-0.019147779792547226,-0.004270687233656645,-9.7384033203125,8001,,,,-2.384821891784668,0.8124334812164307,-0.2343185842037201,-0.01299926545470953,-0.021578680723905563,-0.0003008540952578187,-1.54,0.26,356.43
118840.145,410998839,290255237,81.77,0.01100000087171793,0.030000001192092896,0,0.001317549147643149,-0.0011417957721278071,-0.0012597528984770179,-0.01459420658648014,-0.016510505229234695,-9.743860244750977,8001,,,,-2.3894639015197754,0.8085153102874756,-0.23248490691184998,-0.013889933004975319,-0.02180470898747444,0.00012382667046040297,-1.54,0.26,356.43
118940.145,410998839,290255237,81.77,0.01100000087171793,0.030000001192092896,0,0.001143970643170178,0.0005597264971584082,-0.000651664100587368,-0.00876553077250719,-0.010217024944722652,-9.737277030944824,8001,,,,-2.3933827877044678,0.8050224781036377,-0.2309633195400238,-0.014862817712128162,-0.021974598988890648,0.00027110680821351707,-1.54,0.26,356.44
119040.145,410998838,290255237,81.77,0.014000000432133675,-0.014000000432133675,0,0.0003692277823574841,-0.0015518174041062593,0.0005953306681476533,-0.011131443083286285,-0.007406698074191809,-9.732686996459961,8001,,,,-2.397879123687744,0.8009745478630066,-0.2294226586818695,-0.015142161399126053,-0.02239370159804821,0.0018367025768384337,-1.54,0.26,356.44
119140.145,410998838,290255237,81.77,0.014000000432133675,-0.014000000432133675,0,-0.00042412543552927673,0.0007389283273369074,-0.00029481612727977335,0.009833545424044132,-0.01661326177418232,-9.744451522827148,8001,,,,-2.401796340942383,0.7973418235778809,-0.22862717509269714,-0.01479653362184763,-0.0227836761623621,0.00222655083052814,-1.54,0.26,356.44
119240.145,410998838,290255236,81.75,0.02800000086426735,0.003000000026077032,0,-0.0005603829049505293,-0.00013770617078989744,0.0011006437707692385,-0.010672717355191708,-0.01506328210234642,-9.74868106842041,8001,,,,-2.4051194190979004,0.794252336025238,-0.2288876473903656,-0.01438902597874403,-0.0226332638412714,0.0015281315427273512,-1.54,0.26,356.44
119340.145,410998838,290255236,81.75,0.02800000086426735,0.003000000026077032,0,0.0005113371880725026,0.0014830832369625568,-0.0009890032233670354,-0.008067353628575802,-0.004377599339932203,-9.763832092285156,8001,,,,-2.408047676086426,0.7914998531341553,-0.22822734713554382,-0.014168551191687584,-0.02180091105401516,0.0012735268101096153,-1.54,0.26,356.45
119440.145,410998837,290255236,81.74,0.017000000923871994,0.05000000074505806,0,0.0006579092005267739,-0.0008761048666201532,-0.0008596432162448764,-0.007983678951859474,-0.0020109310280531645,-9.763775825500488,8001,,,,-2.412529945373535,0.7884557843208313,-0.22612330317497253,-0.01449410617351532,-0.021048713475465775,0.0012791245244443417,-1.54,0.26,356.44
119540.145,410998837,290255236,81.74,0.017000000923871994,0.05000000074505806,0,-0.0008569412166252732,0.0012957387370988727,-0.0002310681011294946,-0.009090683422982693,-0.003114785999059677,-9.751618385314941,8001,,,,-2.416137933731079,0.7858237028121948,-0.22434338927268982,-0.014537316747009754,-0.020351747050881386,0.0008246799116022885,-1.54,0.27,356.44
119640.145,410998837,290255235,81.72,0.012000000104308128,-0.021000001579523087,0,0.0004887084942311049,0.0022435321006923914,0.00040372880175709724,-0.011967110447585583,0.0004461043863557279,-9.731119155883789,8001,,,,-2.419299840927124,0.7832096815109253,-0.2218700349330902,-0.014113529585301876,-0.01943265274167061,0.0015519345179200172,-1.54,0.27,356.45
119740.145,410998837,290255235,81.72,0.012000000104308128,-0.021000001579523087,0,-0.0006572521524503827,0.00014878399088047445,0.0005398707580752671,-0.005432523787021637,-0.004639634396880865,-9.74185562133789,8001,,,,-2.4218664169311523,0.7808247208595276,-0.21908625960350037,-0.013750369660556316,-0.018421998247504234,0.001863766578026116,-1.54,0.26,356.45
119840.145,410998836,290255235,81.73,0.017000000923871994,0.06200000271201134,0,0.00008866671123541892,0.0014850583393126726,-0.0003831450594589114,-0.021759003400802612,-0.007348629180341959,-9.75265884399414,8001,,,,-2.4245500564575195,0.777697741985321,-0.21759817004203796,-0.013680960983037949,-0.01797991618514061,0.0007832372793927789,-1.54,0.26,356.45
119940.145,410998836,290255235,81.73,0.017000000923871994,0.06200000271201134,0,0.0009203505469486117,0.0018096539424732327,-0.0006887197960168123,-0.019914280623197556,-0.010183678939938545,-9.749021530151367,8001,,,,-2.426945924758911,0.7748534679412842,-0.2156272828578949,-0.013643404468894005,-0.018029605969786644,0.0019089748384431005,-1.54,0.26,356.45
120040.145,410998835,290255234,81.71,0.036000002175569534,0.027000000700354576,0,0.0026452967431396246,0.00008837140921968967,-0.0011604811297729611,-0.01469823345541954,-0.003533200826495886,-9.754878044128418,8001,,,,-2.43045973777771,0.7712941765785217,-0.21205434203147888,-0.013479288667440414,-0.018286457285284996,0.002096235053613782,-1.54,0.26,356.45
120140.145,410998835,290255234,81.71,0.036000002175569534,0.027000000700354576,0,-0.000580192543566227,0.00028578698402270675,0.000993570894934237,-0.0091397101059556,-0.00794832780957222,-9.73664379119873,8001,,,,-2.433223009109497,0.7680895328521729,-0.21031412482261658,-0.013678736984729767,-0.018496073782444,0.002484164899215102,-1.55,0.26,356.44
120240.145,410998835,290255233,81.7,0.01600000075995922,0.01600000075995922,0,0.0005191678064875305,-0.0006407122127711773,0.0007269153138622642,-0.012347003445029259,-0.014100432395935059,-9.739123344421387,8001,,,,-2.433223009109497,0.7680895328521729,-0.21031412482261658,-0.013678736984729767,-0.018496073782444,0.002484164899215102,-1.55,0.26,356.44
120340.145,410998835,290255233,81.7,0.01600000075995922,0.01600000075995922,0,0.000938123557716608,-0.0001134309932240285,-0.00035831236164085567,-0.0034331483766436577,-0.01273477915674448,-9.735081672668457,8001,,,,-2.435182809829712,0.7642771601676941,-0.20938989520072937,-0.012405834160745144,-0.019038397818803787,0.0034934869036078453,-1.55,0.26,356.44
120440.145,410998835,290255233,81.69,0.026000000536441803,0.06599999964237213,0,0.0010763879399746656,-0.0003030601073987782,0.0017206459306180477,-0.0013889753026887774,-0.01274670660495758,-9.756163597106934,8000,,,,-2.437051773071289,0.7609168887138367,-0.2078774869441986,-0.011114518158137798,-0.019173573702573776,0.003869682317599654,-1.55,0.26,356.44
120540.145,410998835,290255233,81.69,0.026000000536441803,0.06599999964237213,0,0.00018126319628208876,0.00001547736428619828,-0.0007198750390671194,-0.020654113963246346,-0.013758283108472824,-9.760697364807129,8000,,,,-2.439539909362793,0.7583023905754089,-0.2052968442440033,-0.010334175080060959,-0.018750589340925217,0.004594570957124233,-1.54,0.25,356.44
120640.145,410998835,290255233,81.69,0.026000000536441803,0.06599999964237213,0,0.00014315878797788173,0.0021583386696875095,-0.0004828648525290191,-0.013224340975284576,-0.01177436113357544,-9.742681503295898,8000,,,,-2.4414002895355225,0.7560650110244751,-0.2039555013179779,-0.009970584884285927,-0.01878412626683712,0.004374852869659662,-1.54,0.25,356.44
120740.145,410998834,290255232,81.67,0.02500000037252903,0.012000000104308128,0,0.0008842903771437705,0.0006415609968826175,0.001311930944211781,-0.012084423564374447,-0.0061971042305231094,-9.733694076538086,8000,,,,-2.4435667991638184,0.7522342205047607,-0.20195361971855164,-0.009288154542446136,-0.01953355222940445,0.005269455723464489,-1.54,0.25,356.44
120840.145,410998834,290255230,81.64,0.03700000047683716,-0.013000000268220901,0,-0.00001202831572300056,0.0010446110973134637,-0.00028530749841593206,-0.0024087990168482065,0.005171788390725851,-9.739587783813477,8000,,,,-2.4454421997070312,0.7487226128578186,-0.2007180154323578,-0.008753013797104359,-0.01988113299012184,0.005454620812088251,-1.54,0.25,356.45
120940.145,410998834,290255230,81.64,0.03700000047683716,-0.013000000268220901,0,0.00046374049270525575,-0.000015368817912531085,-0.00007852917769923806,-0.0011287071974948049,-0.012914523482322693,-9.742743492126465,8000,,,,-2.4483957290649414,0.7442829012870789,-0.199575275182724,-0.008429019711911678,-0.020218221470713615,0.006232360377907753,-1.55,0.25,356.45
121040.145,410998834,290255230,81.63,0.01600000075995922,-0.026000000536441803,0,-0.0004808544472325593,0.00013633845082949847,-0.000020953721104888245,-0.017332570627331734,-0.01886984333395958,-9.754714012145996,8000,,,,-2.45066237449646,0.7401149272918701,-0.20007547736167908,-0.007885143160820007,-0.021236762404441833,0.005870353896170855,-1.55,0.25,356.45
121140.145,410998834,290255230,81.63,0.01600000075995922,-0.026000000536441803,0,-0.00013219454558566213,0.001326035475358367,0.0018388886237517,-0.006490024272352457,-0.0025343825109302998,-9.763426780700684,8000,,,,-2.4518792629241943,0.7362070679664612,-0.2023737132549286,-0.00627012038603425,-0.021649209782481194,0.005295898299664259,-1.55,0.25,356.45
121240.145,410998833,290255229,81.62,0.03800000250339508,-0.027000000700354576,0,0.0015908695058897138,-0.000376153300749138,-0.0003142156347166747,-0.011714009568095207,-0.00899532064795494,-9.743545532226562,8000,,,,-2.452895164489746,0.7327852249145508,-0.2044895589351654,-0.004959991201758385,-0.021717840805649757,0.0036147914361208677,-1.55,0.24,356.45
121340.145,410998833,290255229,81.62,0.03800000250339508,-0.027000000700354576,0,-0.0001147839066106826,-0.0003556674055289477,0.0005189704243093729,-0.010121634230017662,-0.0074243852868676186,-9.7230863571167,8000,,,,-2.454148054122925,0.7297090888023376,-0.20806357264518738,-0.003725719638168812,-0.021700220182538033,0.003098782617598772,-1.54,0.24,356.46
121440.145,410998833,290255229,81.61,0.026000000536441803,0.03100000135600567,0,0.00008955042721936479,0.00037906490615569055,0.00012112202239222825,-0.013684544712305069,-0.006177589297294617,-9.742613792419434,8000,,,,-2.4551186561584473,0.727173924446106,-0.2123987376689911,-0.002461831783875823,-0.02155790664255619,0.001203277730382979,-1.54,0.24,356.46
121540.145,410998833,290255229,81.61,0.026000000536441803,0.03100000135600567,0,0.0008653511758893728,-0.0003479456645436585,0.0005675331340171397,-0.017406797036528587,-0.010102572850883007,-9.745738983154297,8000,,,,-2.4570934772491455,0.725911021232605,-0.2174956500530243,-0.0017753419233486056,-0.019615881145000458,-0.001228360808454454,-1.54,0.24,356.46
121640.145,410998832,290255228,81.59,0.015000000596046448,0.010000000707805157,0,0.0004715663962997496,0.0008209843072108924,0.0006913332035765052,-0.006272794678807259,-0.006341199390590191,-9.757736206054688,8000,,,,-2.4585447311401367,0.7245238423347473,-0.22100099921226501,-0.0007431023987010121,-0.0180364903062582,-0.0026264977641403675,-1.54,0.24,356.45
121740.145,410998832,290255228,81.59,0.015000000596046448,0.010000000707805157,0,0.0007945845136418939,-0.00035061457310803235,0.00008742540376260877,-0.006418108008801937,-0.013385034166276455,-9.778427124023438,8000,,,,-2.460423469543457,0.7216907739639282,-0.22258874773979187,-0.00031198206124827266,-0.01756500080227852,-0.003840949386358261,-1.54,0.24,356.45
121840.145,410998832,290255227,81.58,0.005000000353902578,-0.01100000087171793,0,0.0008020824170671403,-0.00034970708657056093,-0.00029960405663587153,-0.014864043332636356,-0.012643629685044289,-9.718375205993652,8000,,,,-2.4620020389556885,0.7191619873046875,-0.22510108351707458,0.0002164047909900546,-0.01766112633049488,-0.004637551493942738,-1.55,0.24,356.45
121940.145,410998832,290255227,81.58,0.005000000353902578,-0.01100000087171793,0,-0.0005514125805348158,-0.0006367160240188241,0.0016521075740456581,-0.0196225605905056,0.0008464856073260307,-9.738852500915527,8000,,,,-2.4653565883636475,0.7165007591247559,-0.22770628333091736,-0.0005935794324614108,-0.016695864498615265,-0.005421936511993408,-1.55,0.24,356.45
122040.145,410998831,290255227,81.57,0.01600000075995922,0.010000000707805157,0,0.0010068839183077216,-0.0028640322852879763,-0.0006866142502985895,-0.012062439695000648,-0.015077775344252586,-9.7398681640625,8000,,,,-2.468583583831787,0.7139198184013367,-0.22984585165977478,-0.0014387350529432297,-0.016626998782157898,-0.005407482385635376,-1.55,0.24,356.45
122140.145,410998831,290255227,81.57,0.01600000075995922,0.010000000707805157,0,-0.0006289023440331221,0.0002574179961811751,-0.0006242526578716934,-0.004548476543277502,-0.005845160689204931,-9.759292602539062,8000,,,,-2.472104549407959,0.7110691666603088,-0.2307424247264862,-0.00255585671402514,-0.016420209780335426,-0.0054205129854381084,-1.55,0.24,356.45
122240.145,410998830,290255227,81.56,0.04000000283122063,-0.023000001907348633,0,0.0010448727989569306,0.0011224946938455105,0.0006808637408539653,-0.015060079284012318,-0.005864995066076517,-9.7629976272583,8000,,,,-2.4752705097198486,0.7086127400398254,-0.2311771810054779,-0.0026819719932973385,-0.015746666118502617,-0.007023747079074383,-1.55,0.25,356.45
122340.145,410998830,290255227,81.56,0.04000000283122063,-0.023000001907348633,0,-0.000688810832798481,-0.0005509048933163285,0.00047561232349835336,0.008076555095613003,-0.004462185315787792,-9.75552749633789,8000,,,,-2.4783694744110107,0.7065227627754211,-0.23113808035850525,-0.002645070431753993,-0.015157056041061878,-0.0078118001110851765,-1.55,0.24,356.44
122440.145,410998830,290255226,81.55,0.012000000104308128,-0.029000001028180122,0,0.001303923549130559,0.0017570568015798926,0.00030318356584757566,0.0028195311315357685,-0.014508607797324657,-9.750014305114746,8000,,,,-2.481738805770874,0.7050576210021973,-0.23137661814689636,-0.00229088356718421,-0.013877851888537407,-0.008350804448127747,-1.55,0.25,356.44
122540.145,410998830,290255226,81.55,0.012000000104308128,-0.029000001028180122,0,0.001174634788185358,0.00034303453867323697,0.0001509535068180412,-0.006401187740266323,-0.010219154879450798,-9.723106384277344,8000,,,,-2.4859087467193604,0.7044190168380737,-0.2317124307155609,-0.003494890173897147,-0.01173668634146452,-0.009192920289933681,-1.55,0.25,356.44
122640.145,410998829,290255225,81.54,0.02500000037252903,0.0430000014603138,0,-0.00008147712651407346,0.00047764592454768717,-0.0005154508980922401,-0.0033818334341049194,-0.010283476673066616,-9.745550155639648,8000,,,,-2.4896888732910156,0.7032058835029602,-0.23225149512290955,-0.0035938736982643604,-0.010698839090764523,-0.008751236833631992,-1.55,0.25,356.44
122740.145,410998829,290255225,81.54,0.02500000037252903,0.0430000014603138,0,0.00039884375291876495,0.0009692045277915895,0.00036041109706275165,-0.007311489433050156,-0.006388808134943247,-9.764183044433594,8000,,,,-2.4933700561523438,0.7011986970901489,-0.23345419764518738,-0.0035161026753485203,-0.009807772003114223,-0.009984521195292473,-1.55,0.24,356.43
122840.145,410998829,290255225,81.53,0.017000000923871994,0.012000000104308128,0,0.0016107158735394478,-0.0016437695594504476,-0.000731250736862421,-0.016008635982871056,-0.010835641995072365,-9.737491607666016,8000,,,,-2.4963929653167725,0.6987541317939758,-0.2334403693675995,-0.0032506820280104876,-0.009982156567275524,-0.010650201700627804,-1.55,0.25,356.43
122940.145,410998829,290255225,81.53,0.017000000923871994,0.012000000104308128,0,0.0007199381943792105,0.00014500756515190005,-0.0011167097836732864,-0.01224405039101839,-0.0012520914897322655,-9.733743667602539,8000,,,,-2.4988901615142822,0.6955357789993286,-0.2319914996623993,-0.0018029019702225924,-0.01057729683816433,-0.010031238198280334,-1.55,0.24,356.43
123040.145,410998829,290255225,81.53,0.03500000014901161,-0.005000000353902578,0,0.0008758789044804871,0.0000863256209413521,-0.00028914251015521586,-0.0002710761909838766,-0.013220397755503654,-9.738547325134277,8000,,,,-2.501641273498535,0.6927112340927124,-0.23035165667533875,-0.000513050239533186,-0.00963022094219923,-0.009575342759490013,-1.55,0.24,356.43
123140.145,410998829,290255225,81.53,0.03500000014901161,-0.005000000353902578,0,-0.0007636783411726356,-0.00024471658980473876,0.0007557025528512895,-0.016187401488423347,-0.017288783565163612,-9.749515533447266,8000,,,,-2.5041542053222656,0.6908681988716125,-0.22910639643669128,0.00026366402744315565,-0.007374140899628401,-0.009896489791572094,-1.55,0.24,356.43
123240.145,410998829,290255225,81.51,0.006000000052154064,-0.02500000037252903,0,-0.0007268332410603762,0.0005129867349751294,0.0004635844670701772,-0.0038950503803789616,-0.0022606125567108393,-9.748833656311035,8000,,,,-2.506304979324341,0.6899085640907288,-0.22904261946678162,0.0009966677753254771,-0.004462052136659622,-0.009250101633369923,-1.55,0.24,356.43
123340.145,410998829,290255225,81.51,0.006000000052154064,-0.02500000037252903,0,-0.0010945360409095883,-0.001105811446905136,0.00007807907968526706,-0.00353177054785192,0.0030446492601186037,-9.747703552246094,8000,,,,-2.5083560943603516,0.6901147961616516,-0.22942420840263367,0.0018894437234848738,0.0005459985113702714,-0.009317377582192421,-1.55,0.24,356.43
123440.145,410998829,290255225,81.51,0.006000000052154064,-0.02500000037252903,0,0.00027194753056392074,-0.000984190497547388,-0.0007796641439199448,-0.009095052257180214,-0.013745606876909733,-9.747596740722656,8000,,,,-2.509772539138794,0.6907091736793518,-0.2304656207561493,0.003051566192880273,0.004100702702999115,-0.00971868634223938,-1.55,0.24,356.43
123540.145,410998828,290255224,81.51,0.007000000216066837,-0.023000001907348633,0,0.0001794874988263473,-0.0008937267120927572,-0.0013159927912056446,-0.00747873866930604,-0.010694052092730999,-9.75383472442627,8000,,,,-2.5119872093200684,0.6898482441902161,-0.2323267161846161,0.003578698495402932,0.0061681922525167465,-0.010846160352230072,-1.56,0.24,356.43
123640.145,410998828,290255223,81.51,0.026000000536441803,0.021000001579523087,0,0.001002766890451312,-0.0001771000970620662,0.001776444143615663,-0.013264792039990425,-0.016673533245921135,-9.751402854919434,8000,,,,-2.5143489837646484,0.6883909106254578,-0.23406729102134705,0.004479723516851664,0.006553163751959801,-0.011143296957015991,-1.56,0.24,356.43
123740.145,410998828,290255223,81.51,0.026000000536441803,0.021000001579523087,0,0.00012842431897297502,0.0004651615454349667,-0.001115425257012248,-0.0034804705064743757,-0.004852514248341322,-9.736490249633789,8000,,,,-2.51629900932312,0.6866857409477234,-0.2358081042766571,0.005517525598406792,0.0067547461949288845,-0.011911311186850071,-1.56,0.24,356.42
123840.145,410998828,290255223,81.47,0.027000000700354576,-0.039000000804662704,0,0.0001982009271159768,0.0021394307259470224,-0.0000375669333152473,-0.020932430401444435,-0.016962014138698578,-9.731443405151367,8000,,,,-2.517584800720215,0.6850243806838989,-0.23688611388206482,0.006670017726719379,0.006896394770592451,-0.011370050720870495,-1.56,0.25,356.42
123940.145,410998828,290255223,81.47,0.027000000700354576,-0.039000000804662704,0,-0.0010250420309603214,0.0002961895370390266,-0.0007992939790710807,-0.009157574735581875,0.0006077754660509527,-9.746488571166992,8000,,,,-2.518315315246582,0.6830959916114807,-0.23715516924858093,0.009054853580892086,0.0066672260873019695,-0.01120717916637659,-1.56,0.25,356.42
124040.145,410998828,290255222,81.45,0.020000001415610313,0.0560000017285347,0,0.00020602998847607523,0.0009851185604929924,0.001352020655758679,-0.0062318481504917145,-0.021504849195480347,-9.75463581085205,8000,,,,-2.519080638885498,0.6817832589149475,-0.23846670985221863,0.01055531669408083,0.007331470493227243,-0.012763645499944687,-1.56,0.25,356.42
124140.145,410998828,290255222,81.45,0.020000001415610313,0.0560000017285347,0,0.001385203329846263,0.001601244555786252,0.0016624031122773886,-0.02033080719411373,-0.019865797832608223,-9.749658584594727,8000,,,,-2.5204477310180664,0.6810312271118164,-0.24068865180015564,0.010790184140205383,0.00875175278633833,-0.013563642278313637,-1.56,0.25,356.42
124240.145,410998828,290255221,81.43,0.026000000536441803,0.030000001192092896,0,-0.0004365648201201111,0.0009154084254987538,-0.000035878845665138215,-0.013287270441651344,-0.02078058198094368,-9.741837501525879,8000,,,,-2.5220279693603516,0.6794624924659729,-0.2409820258617401,0.010654441080987453,0.00875218864530325,-0.013197747990489006,-1.55,0.25,356.42
124340.145,410998828,290255221,81.43,0.026000000536441803,0.030000001192092896,0,-0.0005233976407907903,0.000419466698076576,0.0006265112897381186,-0.01480641309171915,-0.01104347500950098,-9.742477416992188,8000,,,,-2.5239081382751465,0.6765589714050293,-0.23977085947990417,0.010332190431654453,0.0073575968854129314,-0.012919346801936626,-1.56,0.25,356.42
124440.145,410998828,290255221,81.42,0.03200000151991844,0.006000000052154064,0,0.00085194077109918,0.0016032335115596652,0.0010673875221982598,-0.0010496339527890086,-0.02154141664505005,-9.73646068572998,8000,,,,-2.525153398513794,0.6736072897911072,-0.23819968104362488,0.011001409962773323,0.005900795105844736,-0.012064372189342976,-1.56,0.25,356.42
124540.145,410998828,290255221,81.42,0.03200000151991844,0.006000000052154064,0,0.00010786260827444494,0.0019566502887755632,0.0006069430382922292,-0.009574479423463345,-0.016996053978800774,-9.765137672424316,8000,,,,-2.5258755683898926,0.6701202392578125,-0.2362581193447113,0.01244057435542345,0.0040343152359128,-0.011750685051083565,-1.56,0.25,356.42
124640.145,410998828,290255220,81.41,0.020000001415610313,0.026000000536441803,0,0.0017179719870910048,0.0026222786400467157,-0.0205867737531662,-0.012379992753267288,-0.019569654017686844,-9.730225563049316,8000,,,,-2.526017904281616,0.666762113571167,-0.23508068919181824,0.01339825801551342,0.002819230780005455,-0.011537392623722553,-1.56,0.25,356.41
124740.145,410998828,290255220,81.41,0.020000001415610313,0.026000000536441803,0,-0.0006313367048278451,-0.0011232479009777308,-0.003576097544282675,0.002731099259108305,-0.025477992370724678,-9.728325843811035,8000,,,,-2.5259902477264404,0.6622005701065063,-0.23450610041618347,0.015457033179700375,-0.000496668741106987,-0.01046544499695301,-1.56,0.25,356.43
124840.145,410998828,290255220,81.4,0,0.01900000125169754,0,0.0025164384860545397,-0.0008822490344755352,0.008400849997997284,-0.0002335774915991351,-0.02475890889763832,-9.757281303405762,8000,,,,-2.526003837585449,0.6580365896224976,-0.23363742232322693,0.016728060320019722,-0.0021109222434461117,-0.00985840242356062,-1.56,0.26,356.42
124940.145,410998828,290255220,81.4,0,0.01900000125169754,0,0.007846659980714321,-0.004607995506376028,-0.013221725821495056,0.016008852049708366,-0.021694675087928772,-9.780950546264648,8000,,,,-2.526160717010498,0.6549864411354065,-0.23240777850151062,0.016207601875066757,-0.002551274374127388,-0.010741852223873138,-1.56,0.25,356.39
125040.145,410998827,290255219,81.39,0.005000000353902578,-0.0650000050663948,0,0.0016790830995887518,0.0004459694027900696,0.0219386275857687,-0.001236028503626585,-0.009170482866466045,-9.777848243713379,8000,,,,-2.526853561401367,0.6520959734916687,-0.23102685809135437,0.017794933170080185,-0.001971624791622162,-0.009105701930820942,-1.56,0.26,356.44
125140.145,410998827,290255219,81.39,0.005000000353902578,-0.0650000050663948,0,0.0010284777963533998,-0.0002942228165920824,-0.024471299722790718,-0.029322419315576553,0.004464389756321907,-9.762499809265137,8000,,,,-2.5279462337493896,0.6494490504264832,-0.22982248663902283,0.017402345314621925,-0.002303935820236802,-0.010270725004374981,-1.56,0.25,356.38
125240.145,410998827,290255219,81.39,0.013000000268220901,0.012000000104308128,0,-0.0041882432997226715,0.00908692181110382,0.011275757104158401,-0.03795766457915306,-0.06091756001114845,-9.769832611083984,8000,,,,-2.529414415359497,0.646754264831543,-0.2306436002254486,0.01654254086315632,-0.003810526803135872,-0.009309791028499603,-1.56,0.27,356.44
125340.145,410998827,290255219,81.39,0.013000000268220901,0.012000000104308128,0,0.005930665414780378,-0.004844851326197386,-0.01635158434510231,-0.04974699765443802,0.000211084567126818,-9.741155624389648,8000,,,,-2.5310893058776855,0.6441767811775208,-0.23300239443778992,0.015342231839895248,-0.001359625137411058,-0.011430948972702026,-1.56,0.26,356.37
125440.145,410998826,290255218,81.38,0.010000000707805157,0.014000000432133675,0,-0.0045122746378183365,0.007706743665039539,-0.002903470303863287,-0.08283421397209167,0.001244552549906075,-9.81977367401123,8000,,,,-2.5337233543395996,0.6408494114875793,-0.23499628901481628,0.011831529438495636,-0.0005524711450561881,-0.010669061914086342,-1.55,0.26,356.43
