timestamp(ms),GPS[0].Lat,GPS[0].Lng,GPS[0].Alt,GPS[0].Spd,GPS[0].VZ,GPS[0].Yaw,IMU[0].GyrX,IMU[0].GyrY,IMU[0].GyrZ,IMU[0].AccX,IMU[0].AccY,IMU[0].AccZ,ORGN[0].Lat,ORGN[0].Lng,ORGN[0].Alt,XKF1[0].PN,XKF1[0].PE,XKF1[0].PD,XKF1[0].VN,XKF1[0].VE,XKF1[0].VD,XKF1[0].Roll,XKF1[0].Pitch,XKF1[0].Yaw,XKF1[0].GX,XKF1[0].GY,XKF1[0].GZ
82540.831,410998571,290255354,82.45,0.018000001,-0.018000001,0,-0.000539412,-8.04853E-05,-0.001193559,0.161298335,0.003589468,-9.661003113,NaN,NaN,NaN,-1.73936975,-1.110182285,0.291403085,-0.019751459,-0.005472495,1.65114E-05,-1.56,1.26,6.41,-0.02,0.01,-0.04
82640.831,410998569,290255354,82.45,0.029000001,0.024,0,0.000313459,0.000627816,0.000542245,0.175838828,-0.004330442,-9.68135643,NaN,NaN,NaN,-1.75125277,-1.114173174,0.290112913,-0.01578006,-0.008971075,-0.000936213,-1.56,1.26,6.41,-0.02,0.01,-0.04
82740.831,410998569,290255354,82.45,0.029000001,0.024,0,0.000643775,0.000571443,-0.001013902,0.169818252,-0.006340618,-9.662642479,NaN,NaN,NaN,-1.759873986,-1.117747903,0.289124966,-0.011160092,-0.011558641,-0.002663315,-1.56,1.26,6.4,-0.02,0.01,-0.04
82840.831,410998567,290255355,82.45,0.039000001,0.022000002,0,0.000632261,-0.000121715,-0.000264592,0.171300307,1.71364E-05,-9.653100014,NaN,NaN,NaN,-1.771737456,-1.119583607,0.289058656,-0.006937577,-0.009884532,-0.003609079,-1.56,1.27,6.4,-0.02,0.01,-0.04
82940.831,410998567,290255355,82.45,0.039000001,0.022000002,0,-0.000157341,-0.000209,-0.001481044,0.168865234,-0.002901686,-9.679793358,NaN,NaN,NaN,-1.779711485,-1.120301962,0.288602442,-0.003167569,-0.00777797,-0.004788926,-1.56,1.27,6.4,-0.02,0.01,-0.04
83040.831,410998565,290255355,82.44,0.039000001,0.080000006,0,-0.000870784,0.00027157,0.000672038,0.168875322,0.003335028,-9.67548275,NaN,NaN,NaN,-1.78929317,-1.120723605,0.288285255,0.002435431,-0.005445343,-0.005932331,-1.56,1.27,6.39,-0.02,0.01,-0.04
83140.831,410998565,290255355,82.44,0.039000001,0.080000006,0,-0.002385936,1.71728E-05,-0.000721339,0.168201938,-0.005898039,-9.667176247,NaN,NaN,NaN,-1.795471191,-1.12074542,0.288022786,0.008243495,-0.004022161,-0.00652593,-1.56,1.27,6.39,-0.02,0.01,-0.04
83240.831,410998564,290255355,82.42,0.018000001,0.031000001,0,0.000171538,0.001185134,-0.001081604,0.167666197,0.006961253,-9.682845116,NaN,NaN,NaN,-1.807094097,-1.122982264,0.290813029,0.009926099,-0.005816275,-0.005230465,-1.56,1.28,6.4,-0.02,0.01,-0.04
83340.831,410998564,290255355,82.42,0.018000001,0.031000001,0,-0.000765354,-0.001087592,-0.000163059,0.167279974,0.000878636,-9.670068741,NaN,NaN,NaN,-1.815219402,-1.125345111,0.293070078,0.011520156,-0.008021619,-0.004577499,-1.56,1.28,6.4,-0.02,0.01,-0.04
83440.831,410998562,290255355,82.43,0.043000001,0.096000001,0,-0.001525793,-0.001506468,-0.000795662,0.169407904,-0.001491328,-9.670563698,NaN,NaN,NaN,-1.828011274,-1.126204491,0.295654327,0.011427551,-0.00676136,-0.003749319,-1.56,1.28,6.41,-0.02,0.01,-0.04
83540.831,410998562,290255355,82.43,0.043000001,0.096000001,0,-0.001336063,-0.001189755,-0.000752865,0.173702002,0.010281506,-9.68244648,NaN,NaN,NaN,-1.83660078,-1.126667261,0.296704531,0.01214074,-0.005641988,-0.003678489,-1.56,1.28,6.41,-0.02,0.01,-0.04
83640.831,410998560,290255356,82.43,0.073000006,0.041000001,0,-0.001628091,-0.000454499,-0.00033154,0.166695863,-0.008279997,-9.676696777,NaN,NaN,NaN,-1.847179055,-1.127403855,0.30169633,0.01542849,-0.005286458,-0.001757578,-1.56,1.28,6.41,-0.02,0.01,-0.04
83740.831,410998560,290255356,82.43,0.073000006,0.041000001,0,-0.001291694,-0.000593896,0.000436814,0.170453399,-0.003759628,-9.672046661,NaN,NaN,NaN,-1.853565097,-1.127906799,0.305284649,0.019155646,-0.004803996,-0.001464641,-1.56,1.28,6.41,-0.02,0.01,-0.04
83840.831,410998558,290255357,82.44,0.040000003,0.023000002,0,-0.000721699,0.000481339,-0.000301484,0.179383844,-0.004846886,-9.655627251,NaN,NaN,NaN,-1.871071339,-1.125673294,0.310017198,0.013806189,-0.001204168,-0.000369299,-1.56,1.29,6.4,-0.02,0.01,-0.04
83940.831,410998558,290255357,82.44,0.040000003,0.023000002,0,-0.000284867,0.000590954,-0.00148253,0.176330298,0.009464671,-9.672418594,NaN,NaN,NaN,-1.881725192,-1.123709321,0.312181801,0.011691448,0.001667916,0.000946721,-1.57,1.28,6.4,-0.02,0.01,-0.04
84040.831,410998556,290255357,82.43,0.003,0.001,0,-0.001750064,-0.000546027,0.004125748,0.17485033,0.012833497,-9.663943291,NaN,NaN,NaN,-1.896415234,-1.119894385,0.313809872,0.00918967,0.005696476,0.001363903,-1.57,1.29,6.39,-0.02,0.01,-0.04
84140.831,410998556,290255357,82.43,0.003,0.001,0,-0.002422006,-0.000383321,-0.003561747,0.171340674,-0.010281887,-9.680226326,NaN,NaN,NaN,-1.906626105,-1.116333365,0.314544201,0.008998676,0.010249315,0.001275723,-1.57,1.29,6.4,-0.02,0.01,-0.04
84240.831,410998555,290255357,82.45,0.018000001,0.024,0,-0.001964899,0.001536257,-0.005548433,0.173247918,0.004994787,-9.652767181,NaN,NaN,NaN,-1.922433496,-1.114225626,0.314933568,0.006306183,0.010990823,0.002264337,-1.58,1.3,6.38,-0.02,0.01,-0.04
84340.831,410998555,290255357,82.45,0.018000001,0.024,0,-0.004751517,-0.000533111,0.005469333,0.160234496,-0.024925049,-9.667629242,NaN,NaN,NaN,-1.933601141,-1.112827301,0.315239727,0.006306891,0.012608454,0.001912027,-1.57,1.3,6.4,-0.02,0.01,-0.04
84440.831,410998553,290255357,82.48,0.019000001,0.046000004,0,0.002751309,-0.002639747,-0.008355405,0.182075039,-0.046845645,-9.643568993,NaN,NaN,NaN,-1.945643425,-1.112806678,0.316697568,0.006049287,0.0114049,0.002435391,-1.58,1.3,6.35,-0.02,0.01,-0.04
84540.831,410998553,290255357,82.48,0.019000001,0.046000004,0,0.001863257,0.01100057,0.005699227,0.148891121,-0.030146362,-9.670953751,NaN,NaN,NaN,-1.956572533,-1.112555504,0.318224221,0.005164527,0.010836354,0.002133284,-1.57,1.3,6.39,-0.02,0.01,-0.04
84640.831,410998552,290255358,82.48,0.021000002,-0.001,0,-0.014317979,-0.004979999,-0.017873131,0.147940874,-0.007900217,-9.701858521,NaN,NaN,NaN,-1.956572533,-1.112555504,0.318224221,0.005164527,0.010836354,0.002133284,-1.57,1.3,6.39,-0.02,0.01,-0.04
84740.831,410998552,290255358,82.48,0.021000002,-0.001,0,-0.006775201,0.032425612,0.012420338,0.198275939,-0.033783071,-9.672318459,NaN,NaN,NaN,-1.96816349,-1.111675739,0.320828289,0.008555785,0.012790359,0.004516329,-1.58,1.31,6.36,-0.02,0.01,-0.04
84840.831,410998551,290255358,82.5,0.021000002,-0.038000003,0,0.010394999,0.032031026,-0.016052026,0.18178761,0.057862148,-9.723408699,NaN,NaN,NaN,-1.977905631,-1.110517859,0.323052347,0.007198003,0.01117599,0.000847626,-1.57,1.32,6.36,-0.02,0.01,-0.04
84940.831,410998551,290255358,82.5,0.021000002,-0.038000003,0,0.012662061,0.004978168,0.006866668,0.198462397,-0.052369427,-9.721041679,NaN,NaN,NaN,-1.989564657,-1.108927727,0.323798537,0.005356409,0.013508517,0.002404951,-1.58,1.32,6.37,-0.02,0.01,-0.04
85040.831,410998550,290255359,82.5,0.024,0.012,0,-0.002481625,0.000589401,-0.008659835,0.163906172,0.010558591,-9.670954704,NaN,NaN,NaN,-1.998318315,-1.10732615,0.323716015,0.00387163,0.013468979,0.001102495,-1.57,1.32,6.35,-0.02,0.01,-0.04
85140.831,410998550,290255359,82.5,0.024,0.012,0,-0.008755051,-0.008315347,-0.008726883,0.149119407,-0.005822781,-9.665270805,NaN,NaN,NaN,-2.009304047,-1.105899811,0.321910828,0.005032785,0.014270693,-0.000186646,-1.58,1.32,6.37,-0.02,0.01,-0.04
85240.831,410998548,290255359,82.51,0.013,0.018000001,0,0.007669294,0.000252742,0.004788788,0.174759507,0.058424544,-9.631061554,NaN,NaN,NaN,-2.019021034,-1.104370594,0.320426673,0.007091303,0.016185278,0.002831063,-1.57,1.31,6.36,-0.02,0.01,-0.03
85340.831,410998548,290255359,82.51,0.013,0.018000001,0,0.019383797,-0.002506475,0.001138452,0.18232052,-0.003656242,-9.660435677,NaN,NaN,NaN,-2.028687,-1.102776051,0.319546014,0.003855971,0.014692084,0.000758658,-1.58,1.32,6.34,-0.02,0.01,-0.03
85440.831,410998547,290255359,82.52,0.035,0.039000001,0,-0.017747091,-0.006560684,-0.001136513,0.105410144,-0.056232046,-9.64457798,NaN,NaN,NaN,-2.036653042,-1.101539254,0.318765342,0.003330566,0.012206076,-0.002301881,-1.58,1.31,6.35,-0.02,0.01,-0.03
85540.831,410998547,290255359,82.52,0.035,0.039000001,0,-0.001608388,0.002640354,-0.00350563,0.154227898,0.003080895,-9.66579628,NaN,NaN,NaN,-2.046351433,-1.101389647,0.318837792,0.005540159,0.013640082,-0.000504395,-1.58,1.32,6.34,-0.02,0.01,-0.03
85640.831,410998545,290255359,82.53,0.028000001,0.022000002,0,0.013995825,-0.001235574,-0.006197338,0.160865933,0.022974292,-9.626268387,NaN,NaN,NaN,-2.055732727,-1.101215601,0.319472998,0.003933483,0.013465892,-0.000332666,-1.57,1.32,6.34,-0.02,0.01,-0.03
85740.831,410998545,290255359,82.53,0.028000001,0.022000002,0,0.005817715,-0.012690615,-0.001324047,0.145421147,0.059020165,-9.586483002,NaN,NaN,NaN,-2.067632437,-1.100946546,0.321426064,0.00305047,0.013596549,-0.000305977,-1.57,1.32,6.34,-0.02,0.01,-0.03
85840.831,410998544,290255359,82.52,0.051000003,0.066,0,-0.002449136,-0.004688717,0.000169616,0.128431559,-0.046540391,-9.665555954,NaN,NaN,NaN,-2.07782793,-1.101135492,0.323009968,-0.00012567,0.011127519,2.13569E-05,-1.57,1.32,6.34,-0.02,0.01,-0.03
85940.831,410998544,290255359,82.52,0.051000003,0.066,0,-0.00586848,0.00103411,-0.000259909,0.189608246,0.007239732,-9.731473923,NaN,NaN,NaN,-2.089795351,-1.102888465,0.325083464,0.001764535,0.009006049,-0.001796009,-1.57,1.33,6.34,-0.02,0.01,-0.03
86040.831,410998543,290255359,82.51,0.023000002,0.026000001,0,-0.000751471,0.000306433,0.000471454,0.181372702,-0.034729112,-9.690241814,NaN,NaN,NaN,-2.099867105,-1.104546785,0.326747864,-0.000199044,0.007602443,-0.001893319,-1.57,1.33,6.33,-0.02,0.01,-0.03
86140.831,410998543,290255359,82.51,0.023000002,0.026000001,0,0.00056401,0.009520389,-0.004236934,0.199473158,-0.045327075,-9.668987274,NaN,NaN,NaN,-2.107997894,-1.106034875,0.329597384,0.001040495,0.004947457,-0.001511334,-1.57,1.33,6.33,-0.02,0.01,-0.03
86240.831,410998542,290255359,82.52,0.012,0.091000006,0,0.001457349,-0.002549612,0.004568038,0.139847279,-0.02429942,-9.616074562,NaN,NaN,NaN,-2.115687132,-1.107729673,0.33222273,0.00266027,0.004532712,0.000257027,-1.57,1.32,6.33,-0.02,0.01,-0.03
86340.831,410998542,290255359,82.52,0.012,0.091000006,0,0.007155176,0.00148235,-0.000291781,0.192306295,0.03041013,-9.748797417,NaN,NaN,NaN,-2.124272823,-1.109929562,0.334582239,0.001977521,0.001909222,0.004128119,-1.56,1.33,6.33,-0.02,0.01,-0.03
86440.831,410998541,290255359,82.53,0.017000001,-0.016000001,0,0.008127283,-0.007100083,0.005829839,0.160400748,-0.018416697,-9.708088875,NaN,NaN,NaN,-2.13226366,-1.111678362,0.338231206,0.003234184,0.001530795,0.002622002,-1.56,1.33,6.33,-0.02,0.01,-0.03
86540.831,410998541,290255359,82.53,0.017000001,-0.016000001,0,0.001794444,0.003435853,0.001151062,0.180056915,0.03467837,-9.682174683,NaN,NaN,NaN,-2.140882015,-1.113068938,0.344388455,0.001986166,0.000131567,0.003204675,-1.57,1.33,6.32,-0.02,0.01,-0.03
86640.831,410998539,290255359,82.55,0.024,0.006,0,0.008371349,0.006180913,0.005570681,0.17513144,-0.015801746,-9.728113174,NaN,NaN,NaN,-2.148775101,-1.114016771,0.348515421,0.004642778,1.84067E-05,0.005561666,-1.57,1.34,6.31,-0.02,0.01,-0.03
86740.831,410998539,290255359,82.55,0.024,0.006,0,-0.001845653,-0.004259362,0.011707242,0.171295047,0.002756411,-9.731101036,NaN,NaN,NaN,-2.157011271,-1.114527702,0.350794971,0.00263523,-0.001554017,0.00484225,-1.56,1.34,6.3,-0.02,0.01,-0.03
86840.831,410998538,290255359,82.54,0.029000001,0.036000002,0,0.001843786,-0.001234884,-0.003333802,0.190035835,0.04505207,-9.631599426,NaN,NaN,NaN,-2.166261673,-1.115401745,0.351260871,0.002292315,-0.001588873,0.003374079,-1.56,1.34,6.3,-0.02,0.01,-0.03
86940.831,410998538,290255359,82.54,0.029000001,0.036000002,0,0.001761715,0.003271085,0.006038052,0.168856516,-0.043559957,-9.584057808,NaN,NaN,NaN,-2.174604177,-1.116596699,0.351160526,0.00515268,-0.002717428,0.00514742,-1.56,1.35,6.31,-0.02,0.01,-0.03
87040.831,410998537,290255359,82.54,0.029000001,0.017000001,0,0.002156275,8.94666E-05,0.003916263,0.195913255,0.042631496,-9.598333359,NaN,NaN,NaN,-2.182435989,-1.118032575,0.352207214,0.003123245,-0.004022329,0.008001579,-1.56,1.34,6.3,-0.02,0.01,-0.03
87140.831,410998537,290255359,82.54,0.029000001,0.017000001,0,-0.00069353,0.000521237,0.003029441,0.162225187,0.012397785,-9.700126648,NaN,NaN,NaN,-2.190976858,-1.119898677,0.353147089,0.002812184,-0.00540056,0.009329445,-1.56,1.34,6.3,-0.02,0.01,-0.03
87240.831,410998536,290255360,82.53,0.043000001,0.009000001,0,-0.008868108,0.004604438,-0.005497118,0.148188531,0.05480599,-9.680973053,NaN,NaN,NaN,-2.199818373,-1.121825457,0.3543998,5.41571E-05,-0.007275356,0.005078634,-1.57,1.35,6.29,-0.02,0.01,-0.03
87340.831,410998536,290255360,82.53,0.043000001,0.009000001,0,0.012033207,0.01367832,-0.0003784,0.246961936,-0.006307398,-9.539782524,NaN,NaN,NaN,-2.207385302,-1.123616219,0.3558456,-0.000967809,-0.007467466,0.006009731,-1.56,1.35,6.29,-0.02,0.01,-0.03
87440.831,410998534,290255362,82.53,0.055000003,0.063000001,0,0.006474802,0.002536562,0.005517994,0.117725424,-0.006919805,-9.653168678,NaN,NaN,NaN,-2.215312481,-1.124098539,0.356603473,-0.00368792,-0.007808568,0.006028865,-1.56,1.35,6.3,-0.02,0.01,-0.03
87540.831,410998534,290255362,82.53,0.055000003,0.063000001,0,0.001097938,-0.002134576,-0.000748634,0.188541085,0.006184601,-9.756411552,NaN,NaN,NaN,-2.225019455,-1.122910738,0.356459558,0.000919192,-0.009176686,0.007791572,-1.56,1.36,6.29,-0.02,0.01,-0.03
87640.831,410998533,290255364,82.53,0.050000001,-0.004,0,-0.019121207,-0.007189334,-0.001953664,0.199202091,-0.048864339,-9.726190567,NaN,NaN,NaN,-2.234722614,-1.11999619,0.356976062,-0.003443513,-0.005478446,0.005310874,-1.56,1.36,6.3,-0.02,0.01,-0.03
87740.831,410998533,290255364,82.53,0.050000001,-0.004,0,-0.010607126,-0.004783664,0.003311221,0.215061262,-0.016513662,-9.66437912,NaN,NaN,NaN,-2.242637873,-1.116142154,0.357421428,-0.002948502,-0.002394444,0.007475723,-1.56,1.36,6.3,-0.02,0.01,-0.03
87840.831,410998532,290255365,82.52,0.009000001,0.053000003,0,-0.006809948,-0.001944233,-0.003103141,0.209959209,-0.0877795,-9.644318581,NaN,NaN,NaN,-2.250589848,-1.111621976,0.356603146,-0.005645924,0.000456773,0.004784804,-1.55,1.36,6.29,-0.02,0.01,-0.03
87940.831,410998532,290255365,82.52,0.009000001,0.053000003,0,0.010676969,-0.00522948,0.014942076,0.183149397,-0.010728306,-9.736918449,NaN,NaN,NaN,-2.259689808,-1.105906606,0.354762822,-0.007000444,0.002743503,0.004185855,-1.55,1.35,6.3,-0.02,0.01,-0.03
88040.831,410998531,290255365,82.52,0.020000001,0.107000008,0,0.005545271,-0.002316441,-0.000338557,0.191785678,-0.002016358,-9.715191841,NaN,NaN,NaN,-2.270395994,-1.100545526,0.354015648,-0.008536261,0.006528088,0.00617008,-1.54,1.36,6.29,-0.02,0.01,-0.03
88140.831,410998531,290255365,82.52,0.020000001,0.107000008,0,-0.00015886,-0.006269129,0.005932264,0.111976594,-0.014493002,-9.607419014,NaN,NaN,NaN,-2.279316664,-1.09653008,0.355362058,-0.006721137,0.00666337,0.007800828,-1.52,1.33,6.3,-0.02,0.01,-0.03
88240.831,410998529,290255367,82.51,0.040000003,0.023000002,0,0.012409085,0.007999632,-0.000897111,0.136447772,0.118001178,-9.573366165,NaN,NaN,NaN,-2.288238287,-1.092985749,0.359844327,-0.005321413,0.013280558,0.004088161,-1.51,1.31,6.28,-0.02,0.01,-0.03
88340.831,410998529,290255367,82.51,0.040000003,0.023000002,0,0.007373932,-0.013959358,0.002842205,0.155760825,-0.198427498,-9.67245388,NaN,NaN,NaN,-2.295717478,-1.089989424,0.364125043,-0.012080508,0.001358046,0.008834353,-1.47,1.29,6.29,-0.02,0.01,-0.03
88440.831,410998528,290255368,82.53,0.041000001,0.051000003,0,0.005561486,0.024849441,0.013102775,0.355339497,-0.138629243,-9.791938782,NaN,NaN,NaN,-2.305593252,-1.085773945,0.367541701,-0.011391248,0.012818409,0.00573968,-1.45,1.29,6.3,-0.02,0.01,-0.03
88540.831,410998528,290255368,82.53,0.041000001,0.051000003,0,0.032825783,0.017396776,-0.002097091,0.209025651,-0.028377393,-9.609300613,NaN,NaN,NaN,-2.314223528,-1.081626058,0.369798899,-0.00943553,0.02291473,0.003762828,-1.45,1.21,6.26,-0.02,0.01,-0.03
88640.831,410998527,290255369,82.52,0.051000003,-0.045000002,0,0.013453425,0.008320149,-0.008417058,0.162233502,0.206564382,-9.780734062,NaN,NaN,NaN,-2.322854519,-1.076191783,0.371628642,-0.002243715,0.033295859,-0.001152327,-1.33,1.18,6.23,-0.02,0.01,-0.03
88740.831,410998527,290255369,82.52,0.051000003,-0.045000002,0,0.045820042,-0.034660332,0.000835242,0.298839748,-0.0949779,-9.750598907,NaN,NaN,NaN,-2.328723907,-1.070445776,0.372875899,0.010121492,0.033209231,-0.011824664,-1.19,1.06,6.2,-0.02,0.01,-0.03
88840.831,410998527,290255371,82.54,0.096000001,-0.016000001,0,0.061793104,-0.10769023,0.031347804,0.212165341,-0.015840353,-9.892597198,NaN,NaN,NaN,-2.333940268,-1.064693332,0.370346904,0.004103004,0.044026773,-0.038958192,-0.7,0.64,6.39,-0.02,0.01,-0.03
88940.831,410998527,290255371,82.54,0.096000001,-0.016000001,0,0.075932518,-0.161621898,0.029150266,0.263379782,-0.196850985,-10.69014931,NaN,NaN,NaN,-2.336852551,-1.05834794,0.361408472,0.020860609,0.059097935,-0.139909506,0.19,-0.12,6.49,-0.02,0.01,-0.03
89040.831,410998527,290255372,82.6,0.115000002,-0.426000029,0,0.039575052,-0.042687792,0.004572274,0.404182911,-0.139999628,-11.42067337,NaN,NaN,NaN,-2.338580132,-1.047353148,0.341726065,0.062781028,0.087025538,-0.319678545,0.54,-0.55,6.48,-0.02,0.01,-0.03
89140.831,410998527,290255372,82.6,0.115000002,-0.426000029,0,-0.048009422,0.072322264,0.035410292,0.24235478,-0.21669291,-11.26603794,NaN,NaN,NaN,-2.334490538,-1.033880591,0.304635614,0.087850973,0.129544437,-0.482115924,0.64,-0.46,6.67,-0.02,0.01,-0.03
89240.831,410998527,290255375,82.74,0.239000008,-0.664000034,0,-0.148494214,0.240513608,0.106986701,0.354070157,-0.115851305,-10.73519802,NaN,NaN,NaN,-2.328693151,-1.019942284,0.249916002,0.113498427,0.149805248,-0.59459424,-0.05,0.83,7.35,-0.02,0.01,-0.03
89340.831,410998527,290255375,82.74,0.239000008,-0.664000034,0,-0.091184735,0.181820467,0.164643571,0.246237561,0.042029958,-9.959080696,NaN,NaN,NaN,-2.319983006,-1.00446558,0.182892099,0.119898722,0.159395382,-0.643140793,-0.85,1.92,8.31,-0.02,0.01,-0.03
89440.831,410998527,290255377,83.01,0.092000008,-0.792000055,0,-0.164314538,0.075656757,0.168256611,0.102174699,0.038536359,-9.881863594,NaN,NaN,NaN,-2.314183712,-0.986181259,0.108945087,0.111755729,0.163864076,-0.666443527,-1.57,2.39,9.26,-0.02,0.01,-0.03
89540.831,410998527,290255377,83.01,0.092000008,-0.792000055,0,-0.060436994,-0.046651326,0.159251988,0.293961883,-0.154101387,-9.774036407,NaN,NaN,NaN,-2.309194803,-0.968021035,0.032044698,0.096663512,0.159706727,-0.669589043,-1.68,2.09,10.35,-0.02,0.01,-0.03
89640.831,410998526,290255379,83.12,0.035,-0.612000048,0,0.038859658,-0.012443097,0.198123261,0.001241462,0.023000177,-9.50438118,NaN,NaN,NaN,-2.308569193,-0.956609607,-0.04887427,0.086419702,0.155833185,-0.65464586,-1.65,1.98,11.52,-0.02,0.01,-0.03
89740.831,410998526,290255379,83.12,0.035,-0.612000048,0,0.025600147,0.058028046,0.157588437,0.157841504,0.082541436,-9.413795471,NaN,NaN,NaN,-2.307919979,-0.946489692,-0.12631996,0.064101927,0.156659484,-0.635829091,-1.41,2.27,12.38,-0.02,0.01,-0.03
89840.831,410998525,290255383,83.25,0.286000013,-0.655000031,0,-0.034702674,-0.00771617,0.076518565,0.376378119,-0.041426651,-9.270764351,NaN,NaN,NaN,-2.313507795,-0.941346109,-0.198831156,0.053779036,0.130604312,-0.601973593,-1.46,2.28,12.88,-0.02,0.01,-0.03
89940.831,410998525,290255383,83.25,0.286000013,-0.655000031,0,0.025329063,-0.060742348,0.01248766,0.049910836,0.077745967,-9.2044487,NaN,NaN,NaN,-2.319656134,-0.936482906,-0.263506353,0.039757095,0.142765686,-0.549523175,-1.17,2.05,12.97,-0.02,0.01,-0.03
90040.831,410998525,290255388,83.31,0.166000009,-0.287,0,0.076489314,0.013088621,-0.073033161,0.180051476,-0.081547879,-9.124077797,NaN,NaN,NaN,-2.330477238,-0.918884099,-0.327890635,-0.001907126,0.165932223,-0.493516713,-0.72,2.03,12.54,-0.02,0.01,-0.03
90140.831,410998525,290255388,83.31,0.166000009,-0.287,0,-0.1540052,-0.067897148,-0.151167393,0.095071755,0.114706852,-9.175498962,NaN,NaN,NaN,-2.340765476,-0.898627043,-0.385994554,-0.010745219,0.179878876,-0.453098059,-1.65,1.56,11.58,-0.02,0.01,-0.03
90240.831,410998525,290255391,83.39,0.117000006,-0.306000024,0,-0.275330842,-0.135389328,-0.264230788,0.135045752,-0.113297567,-9.443219185,NaN,NaN,NaN,-2.352186918,-0.877165854,-0.432930648,-0.022783352,0.186063126,-0.432348609,-2.95,0.74,10.05,-0.02,0.01,-0.03
90340.831,410998525,290255391,83.39,0.117000006,-0.306000024,0,-0.188794717,-0.056535285,-0.301219016,0.028456455,0.234010488,-9.540799141,NaN,NaN,NaN,-2.359607458,-0.858255029,-0.476159632,-0.01644285,0.168638051,-0.418091595,-4.07,0.25,8.28,-0.02,0.01,-0.03
90440.831,410998526,290255393,83.46,0.142000005,-0.377000004,0,-0.109076485,-0.033422966,-0.341404676,0.242862538,0.116330169,-9.645009995,NaN,NaN,NaN,-2.364530087,-0.846852422,-0.513813972,-0.000481916,0.118031852,-0.400488466,-4.64,0.11,6.26,-0.02,0.01,-0.03
90540.831,410998526,290255393,83.46,0.142000005,-0.377000004,0,0.068550959,0.070205696,-0.359925538,-0.072016411,0.193320855,-9.672206879,NaN,NaN,NaN,-2.365475893,-0.839381337,-0.554574966,0.022289207,0.08303716,-0.420001626,-4.36,0.25,4.23,-0.02,0.01,-0.03
90640.831,410998525,290255394,83.59,0.104000002,-0.433000028,0,0.060235374,0.060930025,-0.346719056,-0.095972747,0.016586509,-9.865294456,NaN,NaN,NaN,-2.363702774,-0.838526487,-0.600683928,0.018329494,0.04283027,-0.432357043,-3.8,0.58,2.21,-0.02,0.01,-0.03
90740.831,410998525,290255394,83.59,0.104000002,-0.433000028,0,0.069355175,-0.000208313,-0.334747285,-0.024726121,0.087775819,-9.825669289,NaN,NaN,NaN,-2.361096621,-0.840451002,-0.650171161,0.016117573,0.002508784,-0.442386508,-3.34,0.77,0.35,-0.02,0.01,-0.03
90840.831,410998524,290255395,83.72,0.052000001,-0.648000002,0,0.027836593,0.05626855,-0.304184288,-0.068393387,-0.022898514,-9.895719528,NaN,NaN,NaN,-2.367589951,-0.838978112,-0.703530312,0.006162262,-0.018510569,-0.462890536,-3.49,0.91,358.8,-0.02,0.01,-0.03
90940.831,410998524,290255395,83.72,0.052000001,-0.648000002,0,-0.09510231,-0.008390363,-0.180223808,0.042590085,0.30296433,-9.913363457,NaN,NaN,NaN,-2.372996807,-0.840770662,-0.759209871,-0.006998682,-0.057264689,-0.481472224,-4.09,0.69,357.89,-0.02,0.01,-0.03
91040.831,410998523,290255393,83.84,0.105000004,-0.487000018,0,0.026559992,0.014831238,-0.084514461,0.098132074,0.104694031,-9.852827072,NaN,NaN,NaN,-2.381551981,-0.847448349,-0.825811863,-0.022809178,-0.08798942,-0.515079558,-3.87,0.45,357.67,-0.02,0.01,-0.03
91140.831,410998523,290255393,83.84,0.105000004,-0.487000018,0,0.097341679,-0.060162202,0.038776312,-0.182417214,0.119362406,-9.956310272,NaN,NaN,NaN,-2.389185905,-0.857432961,-0.894942522,-0.030112399,-0.116793387,-0.539479494,-3.11,0.27,358.09,-0.02,0.01,-0.03
91240.831,410998520,290255391,83.93,0.175000012,-0.479000032,0,0.108859912,-0.005027147,0.124956146,-0.2376858,0.056985103,-9.881130219,NaN,NaN,NaN,-2.402187109,-0.868945897,-0.96306932,-0.040605813,-0.126587555,-0.537668705,-2.62,0.29,359.04,-0.02,0.01,-0.03
91340.831,410998520,290255391,83.93,0.175000012,-0.479000032,0,0.092248142,-0.062759817,0.23110491,-0.02053903,0.173532113,-9.655362129,NaN,NaN,NaN,-2.415517807,-0.88173759,-1.030488133,-0.049526889,-0.1321868,-0.545590758,-2.35,-0.07,0.45,-0.02,0.01,-0.03
91440.831,410998519,290255388,84.01,0.142000005,-0.477000028,0,0.02473684,-0.037495028,0.229870245,0.020697182,0.102518737,-9.864091873,NaN,NaN,NaN,-2.43205452,-0.895063877,-1.093045592,-0.052247014,-0.139508948,-0.554632783,-2.42,-0.46,1.92,-0.02,0.01,-0.03
91540.831,410998519,290255388,84.01,0.142000005,-0.477000028,0,-0.027312797,-0.069424421,0.26400128,0.030586215,0.163909033,-9.712790489,NaN,NaN,NaN,-2.445265532,-0.909166694,-1.153754473,-0.053568348,-0.151155442,-0.5456568,-2.52,-0.79,3.48,-0.02,0.01,-0.03
91640.831,410998519,290255388,84.01,0.142000005,-0.477000028,0,0.013173682,-0.022246318,0.271321297,-0.060626518,0.208438903,-9.531563759,NaN,NaN,NaN,-2.445265532,-0.909166694,-1.153754473,-0.053568348,-0.151155442,-0.5456568,-2.52,-0.79,3.48,-0.02,0.01,-0.03
91740.831,410998518,290255385,84.1,0.194000006,-0.343000025,0,0.001662754,0.061385714,0.22025463,-0.168060005,0.269631356,-9.53698349,NaN,NaN,NaN,-2.452702761,-0.92143935,-1.210696936,-0.041507475,-0.151133627,-0.533448994,-2.62,-0.69,4.9,-0.02,0.01,-0.03
91840.831,410998516,290255381,84.2,0.170000002,-0.387000024,0,-0.046016868,0.05649725,0.187824056,-0.198550463,-0.030302158,-9.58934021,NaN,NaN,NaN,-2.4599123,-0.935530245,-1.266676068,-0.024174081,-0.155415177,-0.541259408,-2.88,-0.21,6.09,-0.02,0.01,-0.03
91940.831,410998516,290255381,84.2,0.170000002,-0.387000024,0,-0.017556775,-0.021978067,0.165158704,-0.142639697,-0.110638291,-9.657711983,NaN,NaN,NaN,-2.47242713,-0.950608909,-1.317070961,-0.034891274,-0.18218185,-0.532016277,-3.13,-0.08,7.1,-0.02,0.01,-0.03
92040.831,410998515,290255377,84.29,0.244000018,-0.512000024,0,0.085644133,-0.138745248,0.119817011,-0.216333091,0.011398069,-9.618694305,NaN,NaN,NaN,-2.484062433,-0.967909753,-1.369474173,-0.026573118,-0.18943131,-0.53914696,-2.89,-0.53,7.92,-0.02,0.01,-0.03
92140.831,410998515,290255377,84.29,0.244000018,-0.512000024,0,0.058951356,-0.050674971,0.095985718,0.003341379,-0.007500783,-9.655061722,NaN,NaN,NaN,-2.494640827,-0.986346364,-1.422311187,-0.015610958,-0.212433204,-0.539798856,-2.37,-0.97,8.55,-0.02,0.01,-0.03
92240.831,410998515,290255371,84.43,0.237000018,-0.569000006,0,0.07096269,-0.028543554,0.035534803,0.028822182,-0.130660534,-9.666934013,NaN,NaN,NaN,-2.500836372,-1.006133318,-1.477661133,0.003625164,-0.186513901,-0.545674741,-1.88,-1.04,8.97,-0.02,0.01,-0.03
92340.831,410998515,290255371,84.43,0.237000018,-0.569000006,0,0.113612771,-0.097147591,-0.009139786,-0.103876159,-0.0680646,-9.842703819,NaN,NaN,NaN,-2.502809525,-1.025841594,-1.532948732,0.024520397,-0.187116101,-0.53861016,-1.24,-1.47,9,-0.02,0.01,-0.03
92440.831,410998516,290255368,84.53,0.117000006,-0.570000052,0,0.039204508,0.034114279,-0.071606018,-0.127067223,0.221172646,-9.726172447,NaN,NaN,NaN,-2.500880003,-1.044368744,-1.591396093,0.06940034,-0.166950628,-0.556115389,-0.69,-1.74,8.64,-0.02,0.01,-0.03
92540.831,410998516,290255368,84.53,0.117000006,-0.570000052,0,-0.085653432,0.114178717,-0.107428238,0.04415274,0.124952957,-9.561073303,NaN,NaN,NaN,-2.496002913,-1.060688734,-1.649258852,0.091817759,-0.134814307,-0.564778447,-0.94,-1.43,8.1,-0.02,0.01,-0.03
92640.831,410998517,290255366,84.63,0.081,-0.609000027,0,0.017863542,0.134429798,-0.097319923,-0.073716953,0.167039692,-9.690220833,NaN,NaN,NaN,-2.488752365,-1.074068904,-1.705959082,0.11823456,-0.121750779,-0.563612044,-1.35,-0.89,7.5,-0.02,0.01,-0.03
92740.831,410998517,290255366,84.63,0.081,-0.609000027,0,0.01680271,0.044548552,-0.052333381,-0.046887521,0.197130099,-9.814145088,NaN,NaN,NaN,-2.483211517,-1.083655477,-1.763730288,0.134499803,-0.097465239,-0.57426095,-1.22,-0.44,7,-0.02,0.01,-0.03
92840.831,410998518,290255364,84.76,0.202000007,-0.645000041,0,-0.148990542,-0.040308677,-0.019090263,0.051392019,-0.133557409,-9.781242371,NaN,NaN,NaN,-2.476831913,-1.090185285,-1.826279879,0.128849998,-0.074174277,-0.592605948,-1.54,-0.39,6.66,-0.02,0.01,-0.03
92940.831,410998518,290255364,84.76,0.202000007,-0.645000041,0,-0.117029361,-0.030477537,0.023283256,-0.137044907,0.111612283,-9.798522949,NaN,NaN,NaN,-2.472599983,-1.092533469,-1.891298056,0.134628966,-0.078166932,-0.597992599,-2.17,-0.49,6.66,-0.02,0.01,-0.03
93040.831,410998521,290255361,84.86,0.230000004,-0.557000041,0,-0.051134594,0.028376836,0.071980454,-0.006866619,-0.014891838,-9.61221981,NaN,NaN,NaN,-2.466589212,-1.09958744,-1.959596872,0.142694429,-0.094594911,-0.604568779,-2.47,-0.25,6.95,-0.02,0.01,-0.03
93140.831,410998521,290255361,84.86,0.230000004,-0.557000041,0,0.117192991,0.06255462,0.105824746,0.031784236,-0.044543609,-9.741991997,NaN,NaN,NaN,-2.460368395,-1.110136747,-2.026682138,0.145451128,-0.096821681,-0.604968786,-2.16,0.11,7.38,-0.02,0.01,-0.03
93240.831,410998524,290255361,84.91,0.148000002,-0.543000042,0,0.205493778,-0.01639301,0.108825505,-0.186993837,0.164363444,-9.811168671,NaN,NaN,NaN,-2.452758551,-1.121940017,-2.09782505,0.144602537,-0.099868447,-0.625627935,-1.04,0.25,8.01,-0.02,0.01,-0.03
93340.831,410998524,290255361,84.91,0.148000002,-0.543000042,0,0.075969286,-0.004495669,0.11996863,0.041374505,-0.005055377,-9.66034317,NaN,NaN,NaN,-2.443970442,-1.132071257,-2.166739464,0.137160286,-0.077619351,-0.616461873,-0.21,0.37,8.65,-0.02,0.01,-0.03
93440.831,410998526,290255360,85.02,0.18900001,-0.546000004,0,-0.048042614,-0.084541835,0.074140176,-0.097381614,0.224741176,-9.690681458,NaN,NaN,NaN,-2.436569452,-1.134591341,-2.235328674,0.118505627,-0.046381973,-0.611223757,-0.19,0,9.15,-0.02,0.01,-0.03
93540.831,410998526,290255360,85.02,0.18900001,-0.546000004,0,-0.106876247,-0.048784565,0.07025893,-0.036752801,0.107746542,-9.552266121,NaN,NaN,NaN,-2.429402828,-1.131549597,-2.303004503,0.119716436,-0.012578523,-0.603249133,-0.72,-0.39,9.5,-0.02,0.01,-0.03
93640.831,410998527,290255358,85.18,0.109000005,-0.654000044,0,-0.12006066,0.040950712,0.072956711,-0.145502791,0.026342936,-9.559051514,NaN,NaN,NaN,-2.42117691,-1.130055785,-2.369655848,0.117468871,0.012701118,-0.594336689,-1.51,-0.2,9.08,-0.02,0.01,-0.03
93740.831,410998527,290255358,85.18,0.109000005,-0.654000044,0,-0.007457386,0.100578226,0.103288151,-0.037226062,0.273690403,-9.643279076,NaN,NaN,NaN,-2.411851645,-1.129669785,-2.431977272,0.123613328,0.023120016,-0.590979457,-1.82,0.27,9.76,-0.02,0.01,-0.03
93840.831,410998530,290255358,85.27,0.153000012,-0.541000009,0,0.109090753,-0.003474603,0.119327709,-0.033016901,0.154446974,-9.51169014,NaN,NaN,NaN,-2.404753923,-1.129368544,-2.494982481,0.11478921,0.021885227,-0.583329737,-1.41,0.27,10.52,-0.02,0.01,-0.03
93940.831,410998530,290255358,85.27,0.153000012,-0.541000009,0,0.029387359,0.010916171,0.095929064,-0.126418605,-0.107517853,-9.668489456,NaN,NaN,NaN,-2.398734808,-1.128025413,-2.556856871,0.101425797,0.042485248,-0.576606512,-1.1,0.18,11.09,-0.02,0.01,-0.03
94040.831,410998532,290255358,85.37,0.204000011,-0.578000009,0,0.004562634,-0.048577238,0.080060393,0.019738255,0.058257386,-9.548871994,NaN,NaN,NaN,-2.391649008,-1.123958945,-2.618687153,0.094570644,0.061215848,-0.558943629,-0.96,0.12,11.5,-0.02,0.01,-0.03
94140.831,410998532,290255358,85.37,0.204000011,-0.578000009,0,-0.018180249,0.079528168,0.036449727,0.014117245,0.132891461,-9.595357895,NaN,NaN,NaN,-2.384580612,-1.117657661,-2.677499294,0.091334447,0.07942412,-0.564859509,-1.3,0.35,11.68,-0.02,0.01,-0.03
94240.831,410998536,290255359,85.46,0.188000008,-0.464000016,0,-0.093690991,0.100257792,-0.004271084,0.003655098,-0.01226154,-9.711892128,NaN,NaN,NaN,-2.37507534,-1.110616922,-2.73780942,0.083904013,0.110852592,-0.567858994,-1.74,0.78,11.68,-0.02,0.01,-0.03
94340.831,410998536,290255359,85.46,0.188000008,-0.464000016,0,-0.003245591,0.068744659,-0.045256149,-0.100931562,0.089908496,-9.6016922,NaN,NaN,NaN,-2.366286516,-1.102557778,-2.797144651,0.067573711,0.095154777,-0.569682539,-1.9,0.88,11.42,-0.02,0.01,-0.03
94440.831,410998538,290255360,85.53,0.145000011,-0.604000032,0,0.020246601,0.013495617,-0.112472855,-0.14607203,-0.126613289,-9.693943024,NaN,NaN,NaN,-2.355736017,-1.098503232,-2.855842352,0.047583096,0.100522652,-0.576855123,-2.05,0.65,10.84,-0.02,0.01,-0.03
94540.831,410998538,290255360,85.53,0.145000011,-0.604000032,0,0.001991151,0.004801803,-0.168406054,-0.10532555,0.098485716,-9.644963264,NaN,NaN,NaN,-2.34710288,-1.092754483,-2.916899443,0.045796953,0.091067284,-0.580477476,-2.2,0.46,9.8,-0.02,0.01,-0.03
94640.831,410998541,290255364,85.61,0.186000004,-0.569000006,0,-0.061957419,-0.018825108,-0.186316445,-0.133174747,0.045545343,-9.706900597,NaN,NaN,NaN,-2.339090824,-1.086705446,-2.978613853,0.045053653,0.078762859,-0.594510794,-2.52,0.58,8.67,-0.02,0.01,-0.03
94740.831,410998541,290255364,85.61,0.186000004,-0.569000006,0,-0.064117573,0.024290547,-0.211551189,-0.038010694,-0.086630493,-10.04577827,NaN,NaN,NaN,-2.339090824,-1.086705446,-2.978613853,0.045053653,0.078762859,-0.594510794,-2.52,0.58,8.67,-0.02,0.01,-0.03
94840.831,410998542,290255369,85.67,0.191000015,-0.564999998,0,-0.001213705,-0.038266663,-0.194946244,-0.190773368,0.130706072,-10.39342117,NaN,NaN,NaN,-2.331608772,-1.080161929,-3.043778419,0.045465875,0.058595654,-0.645613134,-2.54,0.78,7.5,-0.02,0.01,-0.03
94940.831,410998542,290255369,85.67,0.191000015,-0.564999998,0,0.000144576,-0.015952213,-0.164817333,-0.045351673,-0.069771402,-10.8581152,NaN,NaN,NaN,-2.323159695,-1.072003961,-3.117663622,0.040019136,0.049609512,-0.7631073,-2.45,0.58,6.5,-0.02,0.01,-0.03
95040.831,410998544,290255372,85.8,0.148000002,-1.012000084,0,-0.13716507,-0.053667556,-0.100132234,0.003141968,-0.057609268,-11.42569065,NaN,NaN,NaN,-2.316562891,-1.062308669,-3.206937551,0.041098136,0.036404949,-0.912837565,-2.64,0.38,5.7,-0.02,0.01,-0.03
95140.831,410998544,290255372,85.8,0.148000002,-1.012000084,0,-0.200113967,-0.014427705,-0.068145066,0.001762341,-0.050193273,-11.44340038,NaN,NaN,NaN,-2.312351465,-1.051059008,-3.310010672,0.050108735,0.008683944,-1.101583838,-3.73,0.07,5.05,-0.02,0.01,-0.03
95240.831,410998545,290255372,86.02,0.099000007,-1.360000014,0,0.01117532,0.003494543,0.00587437,0.062381249,-0.127138793,-11.46351433,NaN,NaN,NaN,-2.30492878,-1.045198679,-3.435679913,0.060546491,-0.038330689,-1.307754397,-4.42,-0.06,4.81,-0.02,0.01,-0.03
95340.831,410998545,290255372,86.02,0.099000007,-1.360000014,0,0.212107122,0.079057291,0.040452905,-0.018158479,-0.02350162,-11.51120567,NaN,NaN,NaN,-2.292407513,-1.047654629,-3.582064629,0.093304016,-0.095747449,-1.492169142,-3.67,0.14,5.11,-0.02,0.01,-0.03
95440.831,410998546,290255371,86.3,0.15200001,-1.702000022,0,0.178841934,0.138440549,0.085493013,-0.133796468,-0.01132288,-11.21938419,NaN,NaN,NaN,-2.279978991,-1.055844307,-3.750252724,0.10872063,-0.135841593,-1.641184688,-2.52,0.89,5.81,-0.02,0.01,-0.03
95540.831,410998546,290255371,86.3,0.15200001,-1.702000022,0,0.160619408,0.015522797,0.155874178,0.006298809,0.096974842,-10.93528271,NaN,NaN,NaN,-2.268876553,-1.06601131,-3.932318687,0.096351057,-0.160604507,-1.783818126,-1.9,1.27,6.67,-0.02,0.01,-0.03
95640.831,410998546,290255366,86.66,0.242000014,-1.85800004,0,0.121633686,-0.036313273,0.180103987,-0.1345236,-0.064366087,-10.64917278,NaN,NaN,NaN,-2.266786814,-1.079102993,-4.131269455,0.07472267,-0.156535372,-1.896500468,-1.11,1.34,7.54,-0.02,0.01,-0.03
95740.831,410998546,290255366,86.66,0.242000014,-1.85800004,0,0.044378918,-0.070801467,0.196327925,-0.083866224,0.108853072,-10.61935329,NaN,NaN,NaN,-2.267895937,-1.092982292,-4.340666771,0.03811441,-0.155362412,-1.98986578,-0.75,1.02,8.47,-0.02,0.01,-0.03
95840.831,410998546,290255363,87.01,0.124000005,-2.101000071,0,0.09842097,-0.095736988,0.178367659,-0.041193232,0.130916893,-10.32729816,NaN,NaN,NaN,-2.272691011,-1.111004949,-4.563964367,0.039049841,-0.147047326,-2.05632782,-0.49,0.54,9.45,-0.02,0.01,-0.03
95940.831,410998546,290255363,87.01,0.124000005,-2.101000071,0,0.006108848,-0.063015528,0.141323552,-0.045574538,-0.085675046,-10.08875847,NaN,NaN,NaN,-2.277836084,-1.127364278,-4.786993504,0.016256379,-0.130996406,-2.091426849,-0.25,0.16,10.29,-0.02,0.01,-0.03
96040.831,410998546,290255360,87.4,0.247000009,-2.060000181,0,0.013798505,-0.064250149,0.126413435,-0.170330092,0.158359706,-9.896474838,NaN,NaN,NaN,-2.282310963,-1.139160275,-5.02069664,0.018048191,-0.119334295,-2.112914324,-0.15,-0.05,10.71,-0.02,0.01,-0.03
96140.831,410998546,290255360,87.4,0.247000009,-2.060000181,0,0.075354576,-0.047251731,-0.008052074,-0.079154111,0.125164285,-9.659784317,NaN,NaN,NaN,-2.284125805,-1.148789048,-5.248142719,0.024299782,-0.088695072,-2.099974871,0.15,-0.21,10.57,-0.02,0.01,-0.03
96240.831,410998546,290255357,87.77,0.112000003,-2.06400013,0,0.023712778,-0.010016944,-0.111867681,0.000676025,-0.071628042,-9.520559311,NaN,NaN,NaN,-2.29259181,-1.162649632,-5.473062992,0.036479745,-0.059023444,-2.086279154,-0.02,-0.21,9.86,-0.02,0.01,-0.03
96340.831,410998546,290255357,87.77,0.112000003,-2.06400013,0,-0.079396442,-0.044465207,-0.146404326,-0.007791333,-0.063483261,-9.55512619,NaN,NaN,NaN,-2.29612875,-1.172648787,-5.70068264,0.039307281,-0.046714928,-2.070429564,-0.16,-0.37,8.7,-0.02,0.01,-0.03
96440.831,410998547,290255357,88.15,0.019000001,-2.174000025,0,0.067076348,-0.013644365,-0.173557281,-0.039012097,0.186996922,-9.625832558,NaN,NaN,NaN,-2.29612875,-1.172648787,-5.70068264,0.039307281,-0.046714928,-2.070429564,-0.16,-0.37,8.7,-0.02,0.01,-0.03
96540.831,410998547,290255357,88.15,0.019000001,-2.174000025,0,-0.027281152,0.110707663,-0.13307783,0.119842827,-0.253817976,-9.492256165,NaN,NaN,NaN,-2.294871807,-1.179229021,-5.921706676,0.050455365,-0.016986512,-2.052087069,0.13,-0.24,7.7,-0.02,0.01,-0.03
96640.831,410998548,290255360,88.53,0.124000005,-2.129000187,0,0.009402156,0.14938806,-0.084901489,0.067137055,0.029037312,-9.500566483,NaN,NaN,NaN,-2.292019606,-1.181151986,-6.141989708,0.059301283,0.01227133,-2.03554678,0.15,0.68,7.01,-0.02,0.01,-0.03
96740.831,410998548,290255360,88.53,0.124000005,-2.129000187,0,-0.026653601,0.018854715,-0.113744259,0.039412204,0.016572203,-9.451010704,NaN,NaN,NaN,-2.290451527,-1.177037001,-6.358381271,0.048120495,0.041575082,-2.018942833,0.39,1.5,6.33,-0.02,0.01,-0.03
96840.831,410998549,290255365,88.86,0.164000005,-1.985000134,0,-0.10606017,-0.106773913,-0.112605833,0.025982741,-0.15724273,-9.422181129,NaN,NaN,NaN,-2.291992903,-1.166897535,-6.579809189,0.022712402,0.070351571,-2.002204657,-0.05,1.32,5.62,-0.02,0.01,-0.03
96940.831,410998549,290255365,88.86,0.164000005,-1.985000134,0,-0.095726065,-0.110416777,-0.085023277,0.086996995,0.032002646,-9.422067642,NaN,NaN,NaN,-2.297768116,-1.150756836,-6.793991566,0.005420883,0.100344658,-1.983483076,-0.84,0.49,5.06,-0.02,0.01,-0.03
97040.831,410998548,290255369,89.21,0.190000013,-2.004000187,0,-0.108419463,-0.027357506,-0.043304376,-0.085281469,-0.178667828,-9.527687073,NaN,NaN,NaN,-2.303198814,-1.130622864,-7.00991869,-0.000974376,0.106474265,-1.964698434,-1.54,0.1,4.74,-0.02,0.01,-0.03
97140.831,410998548,290255369,89.21,0.190000013,-2.004000187,0,0.033855807,0.009712005,-0.039744284,0.041416686,-0.223278612,-9.41077137,NaN,NaN,NaN,-2.306704044,-1.109180331,-7.221487522,0.006318621,0.120636009,-1.942810655,-1.45,0.2,4.5,-0.02,0.01,-0.03
97240.831,410998548,290255373,89.53,0.074000001,-1.881000042,0,0.0318233,0.077024676,-0.031235989,0.126030132,0.126754656,-9.52630806,NaN,NaN,NaN,-2.313418865,-1.087383866,-7.435207844,0.011693044,0.145170256,-1.931042314,-1.05,0.5,4.43,-0.02,0.01,-0.03
97340.831,410998548,290255373,89.53,0.074000001,-1.881000042,0,-0.047727905,-0.034065735,0.020778699,0.111740023,0.132597074,-9.5869627,NaN,NaN,NaN,-2.320822477,-1.06586206,-7.641553879,-0.000999393,0.159941196,-1.918403625,-1.22,0.6,4.63,-0.02,0.01,-0.03
97440.831,410998550,290255376,89.84,0.062000003,-1.944000125,0,-0.14206247,-0.064762451,0.049596004,-0.023711316,-0.024899799,-9.668362617,NaN,NaN,NaN,-2.325453997,-1.045366526,-7.853435516,0.005322083,0.1593384,-1.900128245,-1.97,0.34,5.11,-0.02,0.01,-0.03
97540.831,410998550,290255376,89.84,0.062000003,-1.944000125,0,-0.153164312,0.042999085,0.077294149,0.116216749,0.075205304,-9.575941086,NaN,NaN,NaN,-2.327352762,-1.027244925,-8.059522629,0.011943949,0.149512872,-1.897834301,-3.01,0.28,5.6,-0.02,0.01,-0.03
97640.831,410998550,290255380,90.15,0.140000001,-1.853000045,0,0.002951008,0.088964328,0.093988396,0.11474254,0.077757277,-9.57727623,NaN,NaN,NaN,-2.32580328,-1.015946627,-8.267850876,0.016332285,0.132358387,-1.89817512,-3.11,0.79,5.97,-0.02,0.01,-0.03
97740.831,410998550,290255380,90.15,0.140000001,-1.853000045,0,0.097180203,0.0964441,0.07048621,-0.043991659,-0.088039525,-9.607906342,NaN,NaN,NaN,-2.323627472,-1.007792234,-8.468445778,0.012354289,0.108370595,-1.89957273,-2.61,1.27,6.33,-0.02,0.01,-0.03
97840.831,410998550,290255383,90.44,0.086000003,-1.796000123,0,-0.005040699,-0.103447162,0.068820439,-0.032331854,0.138354838,-9.798114777,NaN,NaN,NaN,-2.325761557,-0.996613145,-8.67477417,0.001278198,0.089711525,-1.898759365,-2.61,0.77,6.72,-0.02,0.01,-0.03
97940.831,410998550,290255383,90.44,0.086000003,-1.796000123,0,-0.163500682,-0.145187289,0.044365022,0.12068253,0.103082284,-9.742708206,NaN,NaN,NaN,-2.327145815,-0.987767458,-8.88060379,0.005592199,0.049081028,-1.909860492,-3.64,0.49,6.95,-0.02,0.01,-0.03
98040.831,410998550,290255386,90.76,0.056000002,-1.853000045,0,-0.165285394,0.083883494,0.004947484,0.037911646,0.067160644,-9.845513344,NaN,NaN,NaN,-2.327145815,-0.987767458,-8.88060379,0.005592199,0.049081028,-1.909860492,-3.64,0.49,6.95,-0.02,0.01,-0.03
98140.831,410998550,290255386,90.76,0.056000002,-1.853000045,0,0.021653876,0.045544002,-0.00255712,-0.067660309,-0.045418426,-9.840209007,NaN,NaN,NaN,-2.328225136,-0.982283771,-9.079999924,0.008121184,0.02267376,-1.928001881,-3.79,1.19,6.91,-0.02,0.01,-0.03
98240.831,410998550,290255387,91.11,0.041000001,-1.8950001,0,0.130511969,0.003172175,-0.038284477,0.077199243,-0.002174978,-10.02097893,NaN,NaN,NaN,-2.330160618,-0.981243551,-9.287209511,-0.01811618,-0.031677004,-1.944720984,-3.19,1.51,6.79,-0.02,0.01,-0.03
98340.831,410998550,290255387,91.11,0.041000001,-1.8950001,0,0.093648598,-0.147468418,0.012601514,0.004790453,0.10126818,-9.772358894,NaN,NaN,NaN,-2.335254431,-0.980183065,-9.489174843,-0.022076432,-0.04512655,-1.957353711,-2.48,0.9,6.82,-0.02,0.01,-0.03
98440.831,410998551,290255389,91.43,0.053000003,-1.865000129,0,0.128379732,-0.09926796,0.032358725,0.207799911,-0.030048842,-9.633296967,NaN,NaN,NaN,-2.339117527,-0.980800331,-9.696824074,-0.009527769,-0.044307608,-1.9572891,-1.56,0.28,6.96,-0.02,0.01,-0.03
98540.831,410998551,290255389,91.43,0.053000003,-1.865000129,0,0.049467199,-0.015969859,0.007087282,-0.004409757,0.172920406,-9.588272095,NaN,NaN,NaN,-2.340739489,-0.980232716,-9.900702477,-0.008115161,-0.030589683,-1.954529405,-1.18,0.08,7.02,-0.02,0.01,-0.03
98640.831,410998551,290255389,91.78,0.122000009,-1.944000125,0,-0.119463839,0.060393453,0.001311083,0.196095422,0.146926269,-9.499611855,NaN,NaN,NaN,-2.340433359,-0.975664318,-10.11139011,0.011764656,-0.034191802,-1.948801756,-1.96,0.24,6.95,-0.02,0.01,-0.03
98740.831,410998551,290255389,91.78,0.122000009,-1.944000125,0,-0.111512959,0.095449798,0.011602055,0.228802085,-0.103891969,-9.76871109,NaN,NaN,NaN,-2.337958097,-0.969082177,-10.31527138,0.034851123,-0.0298691,-1.953423858,-2.57,0.6,6.94,-0.02,0.01,-0.03
98840.831,410998552,290255388,92.09,0.053000003,-1.932000041,0,0.209725082,0.088271901,0.021215279,-0.028553281,0.162204236,-9.868997574,NaN,NaN,NaN,-2.33513546,-0.967658401,-10.52521324,0.027550645,-0.019451229,-1.953373313,-1.78,1.12,7.21,-0.02,0.01,-0.03
98940.831,410998552,290255388,92.09,0.053000003,-1.932000041,0,0.138928875,-0.033887152,0.036366131,0.001918409,0.023185214,-9.8022089,NaN,NaN,NaN,-2.334122181,-0.968476295,-10.73422718,0.010942149,-0.013086817,-1.962820768,-0.88,1.18,7.33,-0.02,0.01,-0.03
99040.831,410998553,290255388,92.44,0.086000003,-1.974000096,0,-0.073345914,0.020774748,-0.007988329,-0.052398901,0.043661471,-9.829997063,NaN,NaN,NaN,-2.333209515,-0.966184378,-10.95122623,-0.02086837,0.012350581,-1.988066435,-1.36,1.13,7.38,-0.02,0.01,-0.03
99140.831,410998553,290255388,92.44,0.086000003,-1.974000096,0,-0.079643413,-0.022227315,-0.023743842,-0.056463514,0.270950079,-9.759831429,NaN,NaN,NaN,-2.333663225,-0.962356091,-11.16651058,-0.038526628,0.012359631,-2.006364346,-2.32,0.86,7.25,-0.02,0.01,-0.03
99240.831,410998553,290255388,92.44,0.086000003,-1.974000096,0,-0.101956904,-0.003726566,-0.016965875,-0.081881464,0.257315308,-9.817843437,NaN,NaN,NaN,-2.336802244,-0.959309757,-11.39066696,-0.044594042,0.00512147,-2.018654108,-3.13,0.66,7.18,-0.02,0.01,-0.03
99340.831,410998552,290255389,92.77,0.069000006,-1.979000092,0,0.049895868,0.029566459,-0.016887467,-0.025532505,0.331609517,-9.889895439,NaN,NaN,NaN,-2.341662407,-0.958579421,-11.60681057,-0.063128166,-0.005063665,-2.026858568,-2.8,0.74,7.05,-0.02,0.01,-0.03
99440.831,410998552,290255389,93.14,0.092000008,-2.0400002,0,0.067920931,-0.034427397,-0.055347569,-0.055307154,-0.056122802,-9.64706707,NaN,NaN,NaN,-2.346951962,-0.955258906,-11.82423496,-0.063414246,-0.010615277,-2.027936459,-2.75,0.03,6.55,-0.02,0.01,-0.03
99540.831,410998552,290255389,93.14,0.092000008,-2.0400002,0,-0.115919501,-0.090752505,-0.155761793,-0.010107761,-0.103416137,-9.570583344,NaN,NaN,NaN,-2.351722479,-0.9544276,-12.04233456,-0.041278958,-0.037644014,-2.008061886,-3.32,-0.4,5.65,-0.02,0.01,-0.03
99640.831,410998551,290255390,93.49,0.176000014,-2.080000162,0,-0.01515088,0.157351106,-0.158889934,0.073959231,0.185763702,-9.6248312,NaN,NaN,NaN,-2.352228642,-0.957572818,-12.25404358,-0.041612487,-0.060956992,-2.001969337,-3.11,0.26,4.8,-0.02,0.01,-0.03
99740.831,410998551,290255390,93.49,0.176000014,-2.080000162,0,0.176656276,0.179189116,-0.116631597,0.114229344,0.099360868,-9.540263176,NaN,NaN,NaN,-2.352228642,-0.957572818,-12.25404358,-0.041612487,-0.060956992,-2.001969337,-3.11,0.26,4.8,-0.02,0.01,-0.03
99840.831,410998550,290255390,93.82,0.147,-1.91200006,0,0.031754859,0.118581772,-0.100741923,-0.01196311,0.061365243,-9.741314888,NaN,NaN,NaN,-2.354343891,-0.96308583,-12.47285557,-0.03844111,-0.074863456,-2.010454655,-2.4,1.03,3.98,-0.02,0.01,-0.03
99940.831,410998550,290255390,93.82,0.147,-1.91200006,0,-0.052538332,0.040387627,-0.035770692,-0.0888988,0.00290342,-9.781933784,NaN,NaN,NaN,-2.363496542,-0.962553978,-12.69006443,-0.064162977,-0.069963925,-2.031033993,-2.34,1.53,3.34,-0.02,0.01,-0.03
100040.831,410998549,290255388,94.18,0.168000013,-2.005000114,0,0.081849732,-0.075454772,0.063161939,-0.183812276,0.22182852,-9.916713715,NaN,NaN,NaN,-2.375174046,-0.96520102,-12.91478729,-0.10521321,-0.078866705,-2.05216217,-2.39,1.29,3.48,-0.02,0.01,-0.03
100140.831,410998549,290255388,94.18,0.168000013,-2.005000114,0,-0.061926678,-0.156401187,0.087105356,-0.18503727,-0.007433274,-9.72468853,NaN,NaN,NaN,-2.389370918,-0.969583571,-13.13430023,-0.119444422,-0.083843745,-2.047009706,-2.23,0.49,3.98,-0.02,0.01,-0.03
100240.831,410998549,290255388,94.18,0.168000013,-2.005000114,0,0.037212696,-0.051393595,0.110706463,-0.183154672,0.270181954,-9.671027184,NaN,NaN,NaN,-2.403869867,-0.975838244,-13.36308002,-0.138496578,-0.084029898,-2.051368713,-2.36,-0.27,4.62,-0.02,0.01,-0.03
100340.831,410998547,290255385,94.54,0.210000008,-1.98300004,0,-0.036726877,-0.007826244,0.111907125,-0.020025136,-0.035512853,-9.593105316,NaN,NaN,NaN,-2.415777206,-0.983177245,-13.58146095,-0.136207595,-0.079322822,-2.042243719,-2.27,-0.45,5.35,-0.02,0.01,-0.03
100440.831,410998546,290255383,94.88,0.160000011,-1.987000108,0,-0.084064581,-0.055713125,0.150580436,-0.130896464,-0.121697329,-9.489383698,NaN,NaN,NaN,-2.427578449,-0.992364645,-13.8033762,-0.132486939,-0.104382612,-2.025409937,-2.55,-0.54,6.28,-0.02,0.01,-0.03
100540.831,410998546,290255383,94.88,0.160000011,-1.987000108,0,-0.040168718,-0.042522196,0.190303281,-0.032250844,-0.099220715,-9.418426514,NaN,NaN,NaN,-2.437990427,-1.003409266,-14.02003479,-0.127911553,-0.115970179,-2.012229204,-2.91,-0.86,7.43,-0.02,0.01,-0.03
100640.831,410998544,290255382,95.21,0.171000004,-1.880000114,0,0.050892327,-0.037310973,0.185675681,-0.127345473,-0.182500511,-9.485053062,NaN,NaN,NaN,-2.447097301,-1.013947845,-14.23565578,-0.104383357,-0.122124769,-2.004347086,-2.56,-1.19,8.54,-0.02,0.01,-0.03
100740.831,410998544,290255382,95.21,0.171000004,-1.880000114,0,0.008508831,-0.196618721,0.115923703,-0.095628284,-0.035645701,-9.527632713,NaN,NaN,NaN,-2.454912663,-1.025409937,-14.44548607,-0.086126052,-0.144009739,-1.983337283,-2.27,-2.06,9.17,-0.02,0.01,-0.03
100840.831,410998544,290255382,95.21,0.171000004,-1.880000114,0,-0.127956361,0.007190879,-0.002359455,-0.034572665,0.186626419,-9.559235573,NaN,NaN,NaN,-2.459419012,-1.036216378,-14.65949917,-0.033671211,-0.154019877,-1.964066982,-3.09,-2.16,9.09,-0.02,0.01,-0.03
100940.831,410998544,290255380,95.54,0.192000002,-1.911000133,0,-0.136882693,0.027743146,-0.065456182,-0.131229386,-0.13753435,-9.470192909,NaN,NaN,NaN,-2.459317446,-1.049296141,-14.86871624,0.001618263,-0.183333382,-1.96196568,-3.79,-1.95,8.54,-0.02,0.01,-0.03
101040.831,410998544,290255376,95.9,0.180000007,-1.923000097,0,0.17401652,0.087642446,-0.079210304,0.074127391,-0.119205937,-9.774270058,NaN,NaN,NaN,-2.45223999,-1.067584991,-15.07973289,0.053925734,-0.214172304,-1.966055155,-2.68,-1.3,7.98,-0.02,0.01,-0.03
101140.831,410998544,290255376,95.9,0.180000007,-1.923000097,0,0.268396229,0.06727019,-0.053036783,0.003994511,-0.11865107,-9.765957832,NaN,NaN,NaN,-2.441895723,-1.089831471,-15.29743767,0.080688827,-0.236519605,-1.962132454,-0.99,-0.6,7.64,-0.02,0.01,-0.03
101240.831,410998546,290255373,96.22,0.188000008,-1.926000118,0,0.158601224,0.13264595,-0.040730901,-0.05231674,-0.134514853,-9.683010101,NaN,NaN,NaN,-2.430834055,-1.107550979,-15.50654984,0.0936829,-0.22889781,-1.961369395,-0.36,0.02,7.6,-0.02,0.01,-0.03
101340.831,410998546,290255373,96.22,0.188000008,-1.926000118,0,0.077452563,0.084937111,0.024667572,-0.144141808,-0.013868635,-9.653247833,NaN,NaN,NaN,-2.430834055,-1.107550979,-15.50654984,0.0936829,-0.22889781,-1.961369395,-0.36,0.02,7.6,-0.02,0.01,-0.03
101440.831,410998547,290255370,96.55,0.166000009,-1.870000124,0,0.076391548,0.042850271,0.081038445,-0.189957991,0.118026093,-9.641244888,NaN,NaN,NaN,-2.419988155,-1.124830246,-15.72203827,0.087521002,-0.196079046,-1.96585834,-0.1,0.45,7.98,-0.02,0,-0.03
101540.831,410998547,290255370,96.55,0.166000009,-1.870000124,0,0.024646077,0.038600191,0.084163778,0.008362832,-0.139968574,-9.653181076,NaN,NaN,NaN,-2.411203384,-1.136853337,-15.93080521,0.067153141,-0.183975175,-1.962069988,0.19,0.75,8.53,-0.02,0,-0.03
101640.831,410998548,290255368,96.86,0.090000004,-1.856000066,0,0.031007439,-0.12266808,0.04950029,-0.170957759,0.088146642,-9.547631264,NaN,NaN,NaN,-2.405195951,-1.147832155,-16.14764214,0.038747288,-0.143744707,-1.963547468,0.35,0.27,8.96,-0.02,0,-0.03
101740.831,410998548,290255368,96.86,0.090000004,-1.856000066,0,-0.115454257,-0.142427117,0.001501373,-0.118546948,-0.223143309,-9.61461544,NaN,NaN,NaN,-2.401789665,-1.154930353,-16.35923386,0.03351019,-0.117427513,-1.950408101,0.06,-0.63,9.07,-0.02,0,-0.03
101840.831,410998550,290255367,97.19,0.125,-1.842000127,0,-0.100795828,-0.076529384,0.00499994,-0.048363343,-0.074465819,-9.649065971,NaN,NaN,NaN,-2.397429943,-1.159086823,-16.57446098,0.034502368,-0.079855785,-1.945735455,-0.46,-1.25,9.11,-0.02,0,-0.03
101940.831,410998550,290255367,97.19,0.125,-1.842000127,0,-0.296645015,-0.08862409,0.079180829,-0.087086901,-0.185798138,-9.514537811,NaN,NaN,NaN,-2.391102076,-1.159600377,-16.78321266,0.060887266,-0.075994797,-1.928814292,-1.61,-1.82,9.54,-0.02,0,-0.03
102040.831,410998551,290255367,97.52,0.07,-1.850000143,0,0.086486183,0.032527007,0.133743629,0.048096403,-0.131000116,-9.526925087,NaN,NaN,NaN,-2.379903793,-1.161123037,-16.9943161,0.091278307,-0.06730447,-1.915348053,-1.36,-1.65,10.3,-0.02,0,-0.03
102140.831,410998551,290255367,97.52,0.07,-1.850000143,0,0.628482342,0.273000449,0.075211234,-0.17132926,0.227113783,-9.682712555,NaN,NaN,NaN,-2.36636734,-1.161852121,-17.19602966,0.102234624,-0.010050457,-1.912272811,1.91,-0.32,10.89,-0.02,0,-0.03
102240.831,410998553,290255369,97.84,0.043000001,-1.879000068,0,0.055956401,0.141474023,0.100689553,-0.160558134,0.259864032,-10.06336498,NaN,NaN,NaN,-2.356561661,-1.149229884,-17.4114399,0.054171268,0.098710984,-1.937346816,3.11,0.75,11.73,-0.02,0,-0.03
102340.831,410998553,290255369,97.84,0.043000001,-1.879000068,0,-0.312673032,-0.001302165,0.161310151,-0.251423061,0.300167382,-10.06701565,NaN,NaN,NaN,-2.353859663,-1.124084353,-17.62480736,0.000262182,0.199322149,-1.974860549,1.36,0.88,12.77,-0.02,0,-0.03
102440.831,410998554,290255372,98.17,0.171000004,-1.882000089,0,-0.274432003,-0.129933044,0.120711684,-0.311925948,0.221608698,-9.898220062,NaN,NaN,NaN,-2.354701281,-1.096823215,-17.84704018,-0.045143131,0.257552207,-1.990069747,-0.57,0.25,13.55,-0.02,0,-0.03
102540.831,410998554,290255372,98.17,0.171000004,-1.882000089,0,-0.241637915,-0.135837153,0.050547548,-0.242316723,0.284750462,-9.674775124,NaN,NaN,NaN,-2.35970211,-1.066396594,-18.06906319,-0.062365368,0.293870986,-1.982052207,-2.15,-0.41,13.75,-0.02,0,-0.03
102640.831,410998553,290255377,98.51,0.206000015,-1.868000031,0,-0.294825196,-0.055379413,-0.042993456,-0.259551436,0.276825011,-9.595385551,NaN,NaN,NaN,-2.362798214,-1.036198974,-18.2857933,-0.072828256,0.291610181,-1.974908233,-3.72,-0.59,13.08,-0.02,0,-0.03
102740.831,410998553,290255377,98.51,0.206000015,-1.868000031,0,-0.290778607,-0.012929447,-0.263486117,-0.200789541,0.242178366,-9.440600395,NaN,NaN,NaN,-2.365861177,-1.008067369,-18.49779129,-0.059234027,0.264628649,-1.954564452,-5.4,-1.01,11.37,-0.02,0,-0.03
102840.831,410998554,290255380,98.87,0.101000004,-1.857000113,0,-0.20460242,-0.151734769,-0.377949744,-0.145518184,0.109255493,-9.421456337,NaN,NaN,NaN,-2.366206646,-0.986637652,-18.70242119,-0.021295058,0.198774382,-1.920430183,-6.34,-1.89,8.75,-0.02,0,-0.03
102940.831,410998554,290255380,98.87,0.101000004,-1.857000113,0,-0.128150374,-0.006108724,-0.502754569,-0.233159095,-0.097477689,-9.282132149,NaN,NaN,NaN,-2.366206646,-0.986637652,-18.70242119,-0.021295058,0.198774382,-1.920430183,-6.34,-1.89,8.75,-0.02,0,-0.03
103040.831,410998556,290255382,99.19,0.060000002,-1.88500011,0,0.374731988,0.071695179,-0.486242473,-0.048104275,-0.009074819,-9.650681496,NaN,NaN,NaN,-2.360113859,-0.974772215,-18.90461922,0.014194574,0.115088232,-1.895459533,-5.95,-1.93,5.52,-0.02,0,-0.03
103140.831,410998556,290255382,99.19,0.060000002,-1.88500011,0,0.381607354,0.267570853,-0.3958866,-0.092119791,0.274777234,-9.872172356,NaN,NaN,NaN,-2.346659422,-0.973466158,-19.10316658,0.050749429,0.050193593,-1.906286478,-3.59,-1.03,2.52,-0.02,0,-0.03
103240.831,410998558,290255383,99.51,0.080000006,-1.888000131,0,0.156320289,0.328263581,-0.198567539,-0.193368509,0.207094654,-9.759442329,NaN,NaN,NaN,-2.334946632,-0.972654641,-19.31329918,0.038816921,0.046916239,-1.914225817,-2.18,0.66,0.61,-0.02,0,-0.03
103340.831,410998558,290255383,99.51,0.080000006,-1.888000131,0,-0.090823568,-0.010564301,0.041330498,-0.216489494,0.323212355,-9.883393288,NaN,NaN,NaN,-2.326172829,-0.970414579,-19.52241135,0.004583205,0.04777915,-1.941963911,-2.57,1.51,0.15,-0.02,0,-0.03
103440.831,410998560,290255384,99.84,0.083000004,-1.91200006,0,0.0335145,-0.128199309,0.164108425,-0.010217927,0.060012072,-9.78071785,NaN,NaN,NaN,-2.320964098,-0.969701529,-19.73981285,-0.035635933,0.035155311,-1.955645442,-2.73,0.94,0.84,-0.02,0,-0.03
103540.831,410998560,290255384,99.84,0.083000004,-1.91200006,0,0.067027144,-0.08828672,0.249827147,-0.059169404,0.194333538,-9.700305939,NaN,NaN,NaN,-2.317963839,-0.970980108,-19.95504951,-0.039586544,0.023575164,-1.979381084,-2.43,0.24,2.24,-0.02,0,-0.03
103640.831,410998560,290255387,100.21,0.136000007,-1.980000138,0,-0.060296107,-0.026330549,0.289824992,-0.2563833,0.213729173,-9.886706352,NaN,NaN,NaN,-2.315461874,-0.968956172,-20.1739006,-0.063223042,0.026606949,-1.998366833,-2.58,0.4,3.92,-0.02,0,-0.03
103740.831,410998560,290255387,100.21,0.136000007,-1.980000138,0,-0.051433604,-0.021263396,0.309139639,-0.07800407,0.027089044,-9.758098602,NaN,NaN,NaN,-2.312330961,-0.965108812,-20.39027023,-0.065517545,0.018673349,-2.0204916,-2.83,0.19,5.73,-0.02,0,-0.03
103840.831,410998559,290255389,100.55,0.067000002,-1.957000136,0,-0.002328629,-0.092784621,0.334463239,-0.176061213,0.057598617,-9.624580383,NaN,NaN,NaN,-2.31278348,-0.959192038,-20.61834717,-0.070184931,0.010249047,-2.017076254,-3.06,-0.23,7.75,-0.02,0,-0.03
103940.831,410998559,290255389,100.55,0.067000002,-1.957000136,0,-0.041564751,-0.046188641,0.306793749,-0.055549417,0.367806762,-9.564702034,NaN,NaN,NaN,-2.314916611,-0.95329237,-20.83971024,-0.060773466,0.004256688,-2.000221491,-3.29,-0.44,9.61,-0.02,0,-0.03
104040.831,410998558,290255390,100.89,0.164000005,-1.893000126,0,-0.027007343,0.076195039,0.264312804,0.014375282,0.130898148,-9.387447357,NaN,NaN,NaN,-2.315107822,-0.947317421,-21.06602859,-0.052076604,-0.010872002,-1.985568762,-3.54,-0.02,11.17,-0.02,0,-0.03
104140.831,410998558,290255390,100.89,0.164000005,-1.893000126,0,-0.102193534,0.050381206,0.224307492,-0.004172721,0.089634314,-9.672228813,NaN,NaN,NaN,-2.316617489,-0.945823908,-21.28478813,-0.048502751,-0.050024331,-1.969448686,-3.89,0.18,12.49,-0.02,0,-0.03
104240.831,410998557,290255389,101.22,0.088000007,-1.874000072,0,-0.066459753,-0.099047817,0.176643446,-0.102917381,0.187352344,-9.481328964,NaN,NaN,NaN,-2.32028985,-0.948739231,-21.50831985,-0.032710113,-0.077577367,-1.963227034,-4.25,-0.13,13.6,-0.02,0,-0.03
104340.831,410998557,290255389,101.22,0.088000007,-1.874000072,0,0.047422543,-0.054324146,0.169529974,0.073842376,-0.051450998,-9.363098145,NaN,NaN,NaN,-2.322715759,-0.956937611,-21.72661972,-0.014632403,-0.116869658,-1.933175564,-4.19,-0.52,14.56,-0.02,0,-0.03
104440.831,410998557,290255387,101.57,0.149000004,-1.861000061,0,0.027697485,-0.088494532,0.177755818,0.110357858,-0.041516233,-9.465078354,NaN,NaN,NaN,-2.318660021,-0.966931224,-21.94427299,0.023091197,-0.15782249,-1.921114445,-4.14,-0.69,15.78,-0.02,0,-0.03
104540.831,410998557,290255387,101.57,0.149000004,-1.861000061,0,0.008843478,0.055656083,0.258052528,0.241804317,-0.254037708,-9.567498207,NaN,NaN,NaN,-2.318660021,-0.966931224,-21.94427299,0.023091197,-0.15782249,-1.921114445,-4.14,-0.69,15.78,-0.02,0,-0.03
104640.831,410998560,290255383,101.89,0.288000017,-1.773000121,0,0.01502789,0.033512276,0.326000899,0.230130628,-0.019316867,-9.479373932,NaN,NaN,NaN,-2.310833454,-0.981269479,-22.1605854,0.076404728,-0.191810891,-1.913753867,-4.25,-0.28,17.51,-0.02,0,-0.03
104740.831,410998560,290255383,101.89,0.288000017,-1.773000121,0,0.156229585,-0.216945574,0.30759275,0.232270569,-0.085570008,-9.647112846,NaN,NaN,NaN,-2.298058271,-0.998638749,-22.37202454,0.12814787,-0.232578173,-1.902004004,-4.27,-0.9,19.49,-0.02,0,-0.03
104840.831,410998565,290255380,102.21,0.269000024,-1.774000049,0,0.381272256,0.03019117,0.257308453,0.472878218,-0.140032411,-9.606825829,NaN,NaN,NaN,-2.276572466,-1.019620538,-22.58540916,0.208515123,-0.235402286,-1.889534831,-2.86,-1.6,21.21,-0.02,0,-0.03
104940.831,410998565,290255380,102.21,0.269000024,-1.774000049,0,0.390164942,0.16931124,0.041905709,0.60083884,-0.233231977,-9.359734535,NaN,NaN,NaN,-2.243425608,-1.039062142,-22.79434204,0.276209027,-0.21003966,-1.855271459,-0.3,-0.82,21.96,-0.02,0,-0.03
105040.831,410998571,290255377,102.51,0.346000016,-1.693000078,0,0.158526838,0.175608665,-0.183076799,0.193448365,0.012323801,-9.247878075,NaN,NaN,NaN,-2.207059145,-1.053834677,-23.00190735,0.305193245,-0.149052888,-1.81660068,1.34,0.57,21.33,-0.02,0,-0.03
105140.831,410998571,290255377,102.51,0.346000016,-1.693000078,0,-0.052730218,0.125219822,-0.185443625,0.205811024,0.00993916,-9.437497139,NaN,NaN,NaN,-2.171208143,-1.058783174,-23.20197296,0.300991267,-0.091172613,-1.793097138,1.33,1.38,20.11,-0.02,0,-0.03
105240.831,410998577,290255375,102.83,0.310000002,-1.73300004,0,-0.106608897,0.139622241,-0.240003467,0.296997935,0.271538049,-9.891036987,NaN,NaN,NaN,-2.134244919,-1.059128523,-23.40386963,0.297990829,-0.039321989,-1.806677103,0.54,2.32,18.53,-0.02,0,-0.03
105340.831,410998577,290255375,102.83,0.310000002,-1.73300004,0,-0.203998521,0.212402746,-0.251197964,0.424159676,-0.023946565,-9.96377182,NaN,NaN,NaN,-2.099405527,-1.056534052,-23.6033783,0.275883198,-0.008314066,-1.828121305,-0.27,3.66,16.88,-0.02,0,-0.03
105440.831,410998583,290255372,103.15,0.293000013,-1.792000055,0,-0.190547347,0.091516763,-0.205699071,0.522558928,0.097699501,-9.922168732,NaN,NaN,NaN,-2.066512585,-1.057226658,-23.80878448,0.237808585,-0.007987052,-1.865840197,-1.65,4.44,15.36,-0.02,0,-0.03
105540.831,410998583,290255372,103.15,0.293000013,-1.792000055,0,-0.022470631,-0.006127951,-0.144546539,0.23294735,-0.118433475,-9.895557404,NaN,NaN,NaN,-2.038615227,-1.061247826,-24.0147934,0.201136604,-0.032965869,-1.885982513,-1.92,4.29,14.42,-0.02,0,-0.03
105640.831,410998587,290255371,103.48,0.195000008,-1.880000114,0,-0.0759231,-0.029046725,-0.040616423,0.330675155,-0.179439351,-9.764605522,NaN,NaN,NaN,-2.009869337,-1.069529653,-24.22166252,0.181457266,-0.073082946,-1.894318938,-2.1,4.21,14,-0.02,0,-0.03
