timestamp(ms),GPS[0].Lat,GPS[0].Lng,GPS[0].Alt,GPS[0].Spd,GPS[0].VZ,GPS[0].Yaw,IMU[0].GyrX,IMU[0].GyrY,IMU[0].GyrZ,IMU[0].AccX,IMU[0].AccY,IMU[0].AccZ,ORGN[0].Lat,ORGN[0].Lng,ORGN[0].Alt,XKF1[0].PN,XKF1[0].PE,XKF1[0].PD,XKF1[0].VN,XKF1[0].VE,XKF1[0].VD,XKF1[0].Roll,XKF1[0].Pitch,XKF1[0].Yaw,XKF1[0].GX,XKF1[0].GY,XKF1[0].GZ
184009.967,NaN,NaN,NaN,NaN,NaN,NaN,NaN,NaN,NaN,NaN,NaN,NaN,NaN,NaN,NaN,0.254824132,-2.622927427,-0.450755149,-0.023481386,-0.035667416,-0.057566859,-0.93,0.03,12.07,0,-0.03,0.01
184109.967,411006736,290244037,79.42,0.065000005,-0.085000001,0,0.000382205,0.000287228,-0.004822944,-0.045312036,-0.093644679,-9.70597744,NaN,NaN,NaN,0.254824132,-2.622927427,-0.450755149,-0.023481386,-0.035667416,-0.057566859,-0.93,0.03,12.07,0,-0.03,0.01
184209.967,411006736,290244037,79.42,0.065000005,-0.085000001,0,0.000382205,0.000287228,-0.004822944,-0.045312036,-0.093644679,-9.70597744,NaN,NaN,NaN,0.254824132,-2.622927427,-0.450755149,-0.023481386,-0.035667416,-0.057566859,-0.93,0.03,12.07,0,-0.03,0.01
184309.967,411006736,290244037,79.42,0.065000005,-0.085000001,0,0.000382205,0.000287228,-0.004822944,-0.045312036,-0.093644679,-9.70597744,NaN,NaN,NaN,0.254824132,-2.622927427,-0.450755149,-0.023481386,-0.035667416,-0.057566859,-0.93,0.03,12.07,0,-0.03,0.01
184409.967,411006736,290244037,79.42,0.065000005,-0.085000001,0,0.000382205,0.000287228,-0.004822944,-0.045312036,-0.093644679,-9.70597744,NaN,NaN,NaN,0.254824132,-2.622927427,-0.450755149,-0.023481386,-0.035667416,-0.057566859,-0.93,0.03,12.07,0,-0.03,0.01
184509.967,411006736,290244037,79.42,0.065000005,-0.085000001,0,0.00255757,-0.002515039,0.001764131,-0.036069911,-0.086499028,-9.699480057,NaN,NaN,NaN,0.245490387,-2.639165401,-0.457178026,-0.023990393,-0.032062951,-0.059155986,-0.93,0.02,12.05,0,-0.03,0.01
184609.967,411006736,290244037,79.42,0.065000005,-0.085000001,0,0.002476485,0.000267477,0.005070692,-0.050985646,-0.102306269,-9.704089165,NaN,NaN,NaN,0.238732412,-2.650633335,-0.463939995,-0.023902193,-0.028518926,-0.060167398,-0.93,0.02,12.08,0,-0.03,0.01
184709.967,411006735,290244032,79.48,0.037,-0.087000005,0,-0.001216154,0.000243562,-0.001518185,-0.03522937,-0.092312537,-9.689685822,NaN,NaN,NaN,0.228644282,-2.670137167,-0.471639484,-0.025309384,-0.029282277,-0.059960864,-0.93,0.02,12.05,0,-0.03,0.01
184809.967,411006735,290244032,79.48,0.037,-0.087000005,0,0.002665602,-0.000182737,0.004974044,-0.05287762,-0.102803752,-9.729717255,NaN,NaN,NaN,0.219696999,-2.692346096,-0.480299801,-0.023542713,-0.030074755,-0.061790682,-0.93,0.02,12.07,0,-0.03,0.01
184909.967,411006733,290244028,79.54,0.037,-0.035,0,-6.62893E-05,-0.002332626,-0.006136794,-0.05935362,-0.099601492,-9.702325821,NaN,NaN,NaN,0.219696999,-2.692346096,-0.480299801,-0.023542713,-0.030074755,-0.061790682,-0.93,0.02,12.07,0,-0.03,0.01
185009.967,411006733,290244028,79.54,0.037,-0.035,0,0.001015638,-0.000953768,0.005498111,-0.054335274,-0.096641175,-9.710039139,NaN,NaN,NaN,0.215111792,-2.707050085,-0.486989409,-0.019925265,-0.030341944,-0.062327858,-0.93,0.02,12.05,0,-0.03,0.01
185109.967,411006731,290244024,79.58,0.085000001,-0.092000008,0,0.001228407,-0.001318378,-0.004294833,-0.05004251,-0.094762169,-9.715867996,NaN,NaN,NaN,0.207666561,-2.724677324,-0.491859406,-0.019904215,-0.028379854,-0.063521624,-0.94,0.02,12.07,0,-0.03,0.01
185209.967,411006731,290244024,79.58,0.085000001,-0.092000008,0,-0.000164617,0.000680925,-0.000797489,-0.043295212,-0.083592519,-9.699587822,NaN,NaN,NaN,0.201651886,-2.737077236,-0.496229678,-0.020210437,-0.025942741,-0.063163832,-0.93,0.03,12.04,0,-0.03,0.01
185309.967,411006731,290244021,79.59,0.043000001,-0.074000001,0,0.000786753,0.000129878,-0.000720681,-0.072382085,-0.110046089,-9.721821785,NaN,NaN,NaN,0.192895949,-2.754734755,-0.501680732,-0.022639669,-0.029010877,-0.063416578,-0.93,0.03,12.07,0,-0.03,0.01
185409.967,411006731,290244021,79.59,0.043000001,-0.074000001,0,-0.00021071,-0.0009711,-0.004304075,-0.031169772,-0.099506691,-9.721135139,NaN,NaN,NaN,0.184663415,-2.770584345,-0.507300138,-0.026019685,-0.032027822,-0.064949892,-0.94,0.03,12.05,0,-0.03,0.01
185509.967,411006730,290244018,79.61,0.012,-0.057000004,0,0.000791937,0.001348541,0.005542156,-0.065791279,-0.094134271,-9.708727837,NaN,NaN,NaN,0.177032739,-2.79131794,-0.51253283,-0.024617082,-0.035510927,-0.064909399,-0.93,0.03,12.08,0,-0.03,0.01
185609.967,411006730,290244018,79.61,0.012,-0.057000004,0,0.001042889,0.000261499,-0.007037393,-0.044284042,-0.084127858,-9.718702316,NaN,NaN,NaN,0.171970323,-2.806889772,-0.517657995,-0.022328734,-0.037454907,-0.066587985,-0.93,0.03,12.06,0,-0.03,0.01
185709.967,411006729,290244016,79.65,0.025,-0.033,0,-0.001219499,-0.000536709,0.008214555,-0.047388621,-0.101234481,-9.696090698,NaN,NaN,NaN,0.16652891,-2.823836327,-0.522249103,-0.018485488,-0.034424465,-0.066597439,-0.94,0.03,12.06,0,-0.03,0.01
185809.967,411006729,290244016,79.65,0.025,-0.033,0,0.002160629,-0.000386778,-0.000651616,-0.041841436,-0.10382507,-9.703998566,NaN,NaN,NaN,0.162991419,-2.835761786,-0.526480079,-0.015292576,-0.03147316,-0.066493548,-0.94,0.03,12.09,0,-0.03,0.01
185909.967,411006728,290244014,79.67,0.021000002,-0.039000001,0,0.001547812,-0.001008178,6.6914E-05,-0.045585047,-0.093669012,-9.701885223,NaN,NaN,NaN,0.156449512,-2.85116148,-0.529763818,-0.014744289,-0.028447356,-0.066833854,-0.93,0.03,12.06,0,-0.03,0.01
186009.967,411006728,290244014,79.67,0.021000002,-0.039000001,0,0.002227814,-0.001275774,0.005810436,-0.042001899,-0.102792241,-9.715842247,NaN,NaN,NaN,0.151764944,-2.861797333,-0.532904983,-0.013525705,-0.025068047,-0.067651153,-0.93,0.03,12.08,0,-0.03,0.01
186109.967,411006726,290244012,79.71,0.021000002,-0.076000005,0,-0.000476377,-0.000280523,-0.006020898,-0.049513876,-0.109510154,-9.701621056,NaN,NaN,NaN,0.146039113,-2.874824047,-0.535867691,-0.011563893,-0.019620104,-0.066754363,-0.93,0.03,12.06,0,-0.03,0.01
186209.967,411006726,290244012,79.71,0.021000002,-0.076000005,0,0.000786636,-0.001325946,0.007398481,-0.040802401,-0.105665937,-9.700367928,NaN,NaN,NaN,0.142362177,-2.882771015,-0.539441347,-0.009865417,-0.014874392,-0.066565894,-0.93,0.03,12.07,0,-0.03,0.01
186309.967,411006725,290244009,79.74,0.071000002,-0.125,0,0.001021556,-0.000931409,-0.002904927,-0.05388822,-0.102688767,-9.706947327,NaN,NaN,NaN,0.135593683,-2.894548655,-0.54403007,-0.010113357,-0.010185496,-0.067386702,-0.94,0.03,12.07,0,-0.03,0.01
186409.967,411006725,290244009,79.74,0.071000002,-0.125,0,0.002367506,-0.000123801,0.00217159,-0.052582949,-0.107943639,-9.695422173,NaN,NaN,NaN,0.130674601,-2.902145863,-0.54838419,-0.009835253,-0.005859574,-0.066988565,-0.93,0.03,12.06,0,-0.03,0.01
186509.967,411006724,290244006,79.77,0.037,-0.082000002,0,-0.001470022,-0.00128432,0.019630643,-0.038654003,-0.123132467,-9.723208427,NaN,NaN,NaN,0.12458881,-2.919451475,-0.55491221,-0.008229228,-0.007451884,-0.068460844,-0.93,0.03,12.09,0,-0.03,0.01
186609.967,411006724,290244006,79.77,0.037,-0.082000002,0,0.001497392,-0.000712613,0.002492107,-0.068691075,-0.120123863,-9.704950333,NaN,NaN,NaN,0.119380496,-2.933961868,-0.561118245,-0.008211663,-0.011725867,-0.069994912,-0.93,0.03,12.05,0,-0.03,0.01
186709.967,411006723,290244003,79.79,0.061000004,-0.066,0,0.017462607,-0.003666963,0.017781628,-0.065931104,-0.102486104,-9.628541946,NaN,NaN,NaN,0.112328224,-2.950354815,-0.566701055,-0.008035961,-0.014642918,-0.07320679,-0.94,0.02,12.12,0,-0.03,0.01
186809.967,411006723,290244003,79.79,0.061000004,-0.066,0,-0.001427727,0.024844589,-0.015833741,-0.066008106,-0.189093664,-9.537904739,NaN,NaN,NaN,0.106516525,-2.963616848,-0.571550608,-0.007160852,-0.013282599,-0.073156424,-0.94,0.04,11.99,0,-0.03,0.01
186909.967,411006721,290243999,79.84,0.041000001,-0.079000004,0,0.00520106,0.009979758,0.033084106,-0.072631046,-0.151738375,-9.721455574,NaN,NaN,NaN,0.098246433,-2.981709242,-0.575262785,-0.007945052,-0.012864686,-0.072268344,-0.95,0.04,12.13,0,-0.03,0.01
187009.967,411006721,290243999,79.84,0.041000001,-0.079000004,0,0.02403474,-0.026455479,-0.039989889,-0.117057644,-0.099804714,-9.623616219,NaN,NaN,NaN,0.090290315,-2.9987185,-0.578258872,-0.009295197,-0.0198531,-0.071430512,-0.94,0.05,12.04,0,-0.03,0.01
187109.967,411006720,290243997,79.87,0.002,-0.092000008,0,-0.012262907,-0.000442982,0.019559082,-0.022958221,0.047904804,-9.736369133,NaN,NaN,NaN,0.081777662,-3.016279697,-0.580883145,-0.011621385,-0.023290725,-0.073034026,-0.95,0.05,12.08,0,-0.03,0.01
187209.967,411006720,290243997,79.87,0.002,-0.092000008,0,0.023065204,0.009416381,-0.0198163,-0.055786476,-0.213931426,-9.79153347,NaN,NaN,NaN,0.074559882,-3.03100872,-0.584344864,-0.010346567,-0.019026106,-0.072260752,-0.94,0.06,12.11,0,-0.03,0.01
187309.967,411006719,290243995,79.86,0.092000008,-0.062000003,0,-0.006867493,0.027458292,-0.00973649,-0.081305005,-0.138896227,-9.799339294,NaN,NaN,NaN,0.067147955,-3.04607439,-0.58820498,-0.020580512,-0.027069634,-0.07095965,-0.93,0.03,12.03,0,-0.03,0.01
187409.967,411006719,290243995,79.86,0.092000008,-0.062000003,0,-0.009590671,0.033640627,-0.001337552,0.040902514,-0.121617377,-9.505459785,NaN,NaN,NaN,0.061136,-3.058616877,-0.591077566,-0.014834517,-0.02637621,-0.076414943,-0.92,0.05,12.1,0,-0.03,0.01
187509.967,411006717,290243990,79.91,0.081,-0.028000001,0,0.015414889,-0.040107492,-0.006769003,0.138414845,-0.119398154,-9.717337608,NaN,NaN,NaN,0.053543709,-3.078035116,-0.593932867,-0.012962773,-0.026852626,-0.06217188,-0.94,0.05,12.06,0,-0.03,0.01
187609.967,411006717,290243990,79.91,0.081,-0.028000001,0,0.003722013,-0.015239175,0.002073944,0.068840288,-0.198131338,-9.748577118,NaN,NaN,NaN,0.045568809,-3.096204281,-0.595825553,-0.019134844,-0.030969396,-0.071149722,-0.93,0.04,12.12,0,-0.03,0.01
187709.967,411006716,290243989,79.92,0.025,-0.094000004,0,-0.013244625,-0.031171899,-0.001148633,0.07353197,-0.07623376,-9.729868889,NaN,NaN,NaN,0.034926832,-3.114658356,-0.59726274,-0.020596081,-0.035776965,-0.075425886,-0.93,0.04,12.07,0,-0.03,0.01
187809.967,411006716,290243989,79.92,0.025,-0.094000004,0,0.011314636,0.024307262,-0.013973486,-0.160142288,-0.166156083,-9.568147659,NaN,NaN,NaN,0.026126429,-3.129473686,-0.59877944,-0.023612214,-0.039459825,-0.068139575,-0.93,0.06,12.1,0,-0.03,0.01
187909.967,411006715,290243987,79.93,0.020000001,-0.020000001,0,0.019324603,-0.011549843,-0.001087984,-0.063162424,-0.163293734,-9.627661705,NaN,NaN,NaN,0.016485771,-3.145723104,-0.601446986,-0.023948083,-0.039782707,-0.075042926,-0.94,0.07,12.1,0,-0.03,0.01
188009.967,411006715,290243987,79.93,0.020000001,-0.020000001,0,-0.005050594,0.003980602,0.020210756,0.082078196,-0.127004176,-9.619821548,NaN,NaN,NaN,0.008250447,-3.159779549,-0.602759004,-0.026165778,-0.03999367,-0.067622088,-0.93,0.04,12.08,0,-0.03,0.01
188109.967,411006714,290243987,79.93,0.027000001,-0.045000002,0,-0.021765497,0.025773847,-0.002550875,-0.0428597,-0.113457777,-9.786203384,NaN,NaN,NaN,0.001996424,-3.17196703,-0.602398157,-0.019177269,-0.038853269,-0.062135439,-0.92,0.05,12.1,0,-0.03,0.01
188209.967,411006714,290243987,79.93,0.027000001,-0.045000002,0,0.034038033,-0.010125446,-0.013742303,-0.163429573,-0.050244644,-9.687322617,NaN,NaN,NaN,-0.003106704,-3.181622267,-0.602389812,-0.026685774,-0.033337109,-0.070214726,-0.92,0.04,12.09,0,-0.03,0.01
188309.967,411006714,290243987,79.91,0.062000003,-0.088000007,0,-0.011828957,0.008637491,0.006797892,0.00905086,-0.122272201,-9.681470871,NaN,NaN,NaN,-0.010292266,-3.194342375,-0.600395203,-0.01954484,-0.03232757,-0.068462871,-0.93,0.04,12.11,0,-0.03,0.01
188409.967,411006714,290243987,79.91,0.062000003,-0.088000007,0,-0.002797071,0.01839325,-0.00195241,-0.137216255,0.112787992,-9.683941841,NaN,NaN,NaN,-0.016137242,-3.203562975,-0.599540114,-0.028720925,-0.031316191,-0.065518029,-0.89,0.05,12.12,0,-0.03,0.01
188509.967,411006714,290243987,79.89,0.064000003,-0.035,0,0.023807364,-0.000739501,-0.015358197,0.17934379,0.201841176,-9.76616478,NaN,NaN,NaN,-0.025561184,-3.215878487,-0.599849939,-0.026859146,-0.018754512,-0.068640217,-0.89,0.06,12.14,0,-0.03,0.01
188609.967,411006714,290243987,79.89,0.064000003,-0.035,0,-0.008508766,0.019584911,0.012314684,-0.05925069,-0.2619012,-9.809310913,NaN,NaN,NaN,-0.033004921,-3.228649616,-0.599586487,-0.02812908,-0.029576078,-0.088207476,-0.96,0.06,12.15,0,-0.03,0.01
188709.967,411006713,290243986,79.89,0.048,-0.107000008,0,-0.013159217,-0.017624432,0.014190753,-0.003398393,0.2411246,-9.391016006,NaN,NaN,NaN,-0.037363302,-3.242447138,-0.59952271,-0.012298294,-0.031033715,-0.078629635,-0.94,0.09,12.33,0,-0.03,0.01
188809.967,411006713,290243986,79.89,0.048,-0.107000008,0,0.033735376,0.035833392,0.045234866,0.054581258,-0.172852337,-9.947508812,NaN,NaN,NaN,-0.040809195,-3.255314827,-0.6012187,-0.013827497,-0.027835773,-0.079281054,-0.82,0.1,12.7,0,-0.03,0.01
188909.967,411006713,290243986,79.87,0.075000003,-0.097000003,0,0.052232519,-0.014788349,0.048128299,0.029395217,-0.130246535,-9.499547958,NaN,NaN,NaN,-0.044779412,-3.269836426,-0.603554964,0.001458781,-0.037158728,-0.077275015,-0.64,-0.08,13.03,0,-0.03,0.01
189009.967,411006713,290243986,79.87,0.075000003,-0.097000003,0,0.043985184,-0.046582337,0.027600462,0.03665017,0.085903026,-10.2529192,NaN,NaN,NaN,-0.048188675,-3.281759739,-0.606985927,0.021152509,-0.026943617,-0.09578187,-0.2,-0.36,13.16,0,-0.03,0.01
189109.967,411006713,290243986,79.87,0.083000004,-0.226000011,0,0.131518349,-0.184092045,-0.016058434,0.275773913,-0.306903243,-10.71036339,NaN,NaN,NaN,-0.051248111,-3.293502808,-0.616413355,0.055975556,-0.017969932,-0.196205854,0.6,-0.95,13.07,0,-0.03,0.01
189209.967,411006713,290243986,79.87,0.083000004,-0.226000011,0,0.003903385,0.171601608,-0.034579769,0.258141369,-0.228113681,-11.68509674,NaN,NaN,NaN,-0.04821486,-3.300998688,-0.642421246,0.093688145,-0.007025192,-0.393192887,0.6,0.16,12.89,0,-0.03,0.01
189309.967,411006714,290243985,79.95,0.067000002,-0.570000052,0,0.010493268,0.251860291,-0.027370842,0.213387042,-0.064105645,-11.54758453,NaN,NaN,NaN,-0.041261759,-3.306096315,-0.686332226,0.108224705,0.008968892,-0.542125344,0.24,1.47,12.71,0,-0.03,0.01
189409.967,411006714,290243985,79.95,0.067000002,-0.570000052,0,0.004265149,0.045725349,-0.022183137,0.150371805,-0.289562285,-10.8737421,NaN,NaN,NaN,-0.037345804,-3.311765432,-0.743314147,0.101915479,0.014638609,-0.633651972,0.31,1.55,12.63,0,-0.03,0.01
189509.967,411006717,290243987,80,0.325000018,-0.699000061,0,0.172434986,-0.193931863,0.004046775,0.296176165,-0.349095702,-10.30611324,NaN,NaN,NaN,-0.038246725,-3.31937623,-0.81027627,0.11923568,0.031217135,-0.699507236,1.16,0.32,12.74,0,-0.03,0.01
189609.967,411006717,290243987,80,0.325000018,-0.699000061,0,0.008775447,-0.113064431,0.046658836,0.517051876,-0.53397429,-10.07634449,NaN,NaN,NaN,-0.029460307,-3.329200983,-0.883453608,0.14882876,0.038558967,-0.733439744,1.12,-0.04,12.94,0,-0.03,0.01
189709.967,411006720,290243985,80.2,0.210000008,-0.931000054,0,-0.17543906,0.068462931,0.024043204,0.288110256,-0.189129546,-9.984370232,NaN,NaN,NaN,-0.009764029,-3.338601351,-0.957556129,0.180103987,0.064107373,-0.75140506,0.26,0.85,13.22,0,-0.03,0.01
189809.967,411006720,290243985,80.2,0.210000008,-0.931000054,0,-0.042378202,0.291786313,0.072787024,0.400044858,-0.404239714,-9.797361374,NaN,NaN,NaN,0.008444387,-3.342234135,-1.03661859,0.208943427,0.03970509,-0.745246351,0.46,2.53,13.69,0,-0.03,0.01
189909.967,411006721,290243989,80.35,0.217000008,-0.826000035,0,0.162842155,0.181967378,0.083521746,0.253741145,-0.316111445,-9.585952759,NaN,NaN,NaN,0.02087711,-3.340717793,-1.119055629,0.187350944,0.053476401,-0.738340318,1.43,3.16,14.25,0,-0.03,0.01
190009.967,411006721,290243989,80.35,0.217000008,-0.826000035,0,0.060270641,0.054617733,0.090151317,0.480854958,-0.446937442,-9.345748901,NaN,NaN,NaN,0.028617306,-3.334619761,-1.2010355,0.163254991,0.056734066,-0.71152997,1.37,3.29,14.8,0,-0.03,0.01
190109.967,411006725,290243991,80.49,0.311000019,-0.665000021,0,-0.097626761,-0.05023098,0.111346483,0.450878024,-0.488518625,-9.310313225,NaN,NaN,NaN,0.032479838,-3.325004578,-1.274015665,0.142063007,0.050728895,-0.681660891,0.54,2.97,15.44,0,-0.03,0.01
190209.967,411006725,290243991,80.49,0.311000019,-0.665000021,0,-0.103338398,-0.097350761,0.13996318,0.045645036,-0.455853671,-9.415000916,NaN,NaN,NaN,0.043956116,-3.322347164,-1.342888117,0.137902424,0.042467378,-0.664114594,0.1,2.59,16.28,0,-0.03,0.01
190309.967,411006731,290243993,80.5,0.139000013,-0.567000031,0,-0.008628218,0.008795977,0.156838253,0.22182408,-0.580858946,-9.46897316,NaN,NaN,NaN,0.059076689,-3.32356143,-1.401753426,0.142439306,0.034332886,-0.631092012,0.07,2.83,17.1,0,-0.03,0.01
190409.967,411006731,290243993,80.5,0.139000013,-0.567000031,0,-0.013543761,0.099929564,0.124744006,0.295410782,-0.648916543,-9.413273811,NaN,NaN,NaN,0.072946049,-3.328443527,-1.45786798,0.129558533,0.012162574,-0.604987979,0.79,3.35,17.6,0,-0.03,0.01
190509.967,411006734,290243997,80.53,0.137000009,-0.420000017,0,0.299789488,0.003227086,0.028240334,0.279761016,-0.477622271,-9.288095474,NaN,NaN,NaN,0.085009739,-3.332728863,-1.511596322,0.11517141,0.018751981,-0.590036809,2.31,3,17.78,0,-0.03,0.01
190609.967,411006734,290243997,80.53,0.137000009,-0.420000017,0,0.142096803,-0.127855971,0.030912017,0.35551554,-0.163726971,-9.528686523,NaN,NaN,NaN,0.091940098,-3.329450846,-1.558962107,0.106323786,0.067648545,-0.586705923,2.52,2.19,17.91,0,-0.03,0.01
190709.967,411006736,290243997,80.65,0.27700001,-0.453000009,0,-0.22051917,0.005654659,0.013823713,0.560844123,-0.001790736,-10.10513592,NaN,NaN,NaN,0.097868934,-3.319856405,-1.609872103,0.116776019,0.091055952,-0.605136633,0.96,2.35,18.07,0,-0.03,0.01
190809.967,411006736,290243997,80.65,0.27700001,-0.453000009,0,-0.316381097,0.165719002,0.02790069,0.653224885,-0.433714837,-10.19087315,NaN,NaN,NaN,0.112743907,-3.315886497,-1.666215777,0.138737202,0.093452469,-0.668981969,-0.09,3.35,18.41,0,-0.03,0.01
190909.967,411006738,290243996,80.77,0.167000011,-0.746000051,0,0.147795379,0.193374038,0.035795737,0.52110678,-0.555334568,-10.00431824,NaN,NaN,NaN,0.131088212,-3.315134764,-1.729280949,0.129930884,0.085753515,-0.71225822,0.85,4.57,18.52,0,-0.03,0.01
191009.967,411006738,290243996,80.77,0.167000011,-0.746000051,0,0.212278739,0.20046261,-0.019176343,0.464741409,-0.400483102,-10.338521,NaN,NaN,NaN,0.137082845,-3.319170952,-1.803538799,0.094461516,0.08021801,-0.814138412,1.99,4.96,18.36,0,-0.03,0.01
191109.967,411006738,290243992,81.02,0.263999999,-1.029000044,0,0.064948007,-0.039241157,-0.021450814,0.696489096,-0.204961345,-10.79918385,NaN,NaN,NaN,0.137082845,-3.319170952,-1.803538799,0.094461516,0.08021801,-0.814138412,1.99,4.96,18.36,0,-0.03,0.01
191209.967,411006738,290243992,81.02,0.263999999,-1.029000044,0,-0.087291487,-0.097310476,-0.071526557,0.695504487,-0.376976252,-10.83092403,NaN,NaN,NaN,0.131741986,-3.324447155,-1.891080022,0.040484019,0.116185524,-0.924062729,1.94,4.56,18.03,0,-0.03,0.01
191309.967,411006738,290243990,81.35,0.131999999,-1.321000099,0,-0.070510812,-0.114107519,-0.128683344,0.496697426,-0.393697292,-10.63141346,NaN,NaN,NaN,0.132303566,-3.329263449,-1.995637536,0.008765056,0.128525168,-1.027781725,1.49,3.92,17.42,0.01,-0.03,0.01
191409.967,411006738,290243990,81.35,0.131999999,-1.321000099,0,-0.057613965,-0.019003358,-0.118249893,0.561798453,-0.259608954,-10.56972885,NaN,NaN,NaN,0.136510968,-3.328816652,-2.109687328,0.000144857,0.150673807,-1.11727345,1.32,3.69,16.75,0.01,-0.03,0.01
191509.967,411006740,290243993,81.58,0.160000011,-1.44900012,0,0.020897824,0.043132562,-0.086961053,0.587083399,-0.095063925,-10.5116024,NaN,NaN,NaN,0.138335899,-3.324629545,-2.236730576,-0.0195853,0.173119798,-1.215453029,1.24,3.87,16.09,0.01,-0.03,0.01
191609.967,411006740,290243993,81.58,0.160000011,-1.44900012,0,-0.137708575,0.068867795,-0.098596834,0.449763119,-0.303802699,-10.33325386,NaN,NaN,NaN,0.137872532,-3.317305088,-2.367118835,-0.036037803,0.182348654,-1.283727646,0.58,3.86,15.5,0.01,-0.03,0.01
191709.967,411006740,290243995,81.86,0.234000012,-1.599000096,0,-0.133303538,0.037107188,-0.055802956,0.563873112,-0.219051257,-10.09067631,NaN,NaN,NaN,0.141100854,-3.315824509,-2.500749588,-0.050492428,0.178071976,-1.347691774,-0.38,4.09,15.06,0.01,-0.03,0.01
191809.967,411006740,290243995,81.86,0.234000012,-1.599000096,0,-0.015474358,0.015401316,-0.056510586,0.42604202,-0.353101104,-9.964374542,NaN,NaN,NaN,0.144898161,-3.317516565,-2.640293598,-0.05027052,0.136286318,-1.393481493,-0.87,4.39,14.71,0.01,-0.03,0.01
191909.967,411006743,290244002,82.03,0.229000017,-1.410000086,0,0.089993007,-0.039487056,-0.022768555,0.498624802,-0.358811855,-9.851113319,NaN,NaN,NaN,0.137722701,-3.320653677,-2.789025545,-0.06390053,0.095780358,-1.397829294,-0.59,4.36,14.46,0.01,-0.03,0.01
192009.967,411006743,290244002,82.03,0.229000017,-1.410000086,0,0.093178153,-0.011552819,-0.014708955,0.590992987,-0.138545573,-9.763683319,NaN,NaN,NaN,0.127312064,-3.323213577,-2.936963797,-0.085140936,0.07957463,-1.41253674,0.19,4.04,14.35,0.01,-0.03,0.01
192109.967,411006745,290244005,82.27,0.038000003,-1.417000055,0,-0.126474947,-0.026939865,-0.016112061,0.559164822,-0.425967157,-9.643507957,NaN,NaN,NaN,0.130531222,-3.327384472,-3.087357283,-0.086152337,0.08073771,-1.415997505,-0.01,3.62,14.25,0.01,-0.03,0.01
192209.967,411006745,290244005,82.27,0.038000003,-1.417000055,0,0.091126509,0.182659671,-0.163097247,0.514465988,-0.542852938,-9.492856979,NaN,NaN,NaN,0.133800581,-3.329030991,-3.231528044,-0.064906299,0.052427154,-1.400851965,-0.7,4.18,13.24,0.01,-0.03,0.01
192309.967,411006743,290244007,82.55,0.299000025,-1.38500011,0,0.32923767,0.029689504,-0.247025371,0.294388473,-0.195751771,-9.455708504,NaN,NaN,NaN,0.136229664,-3.336946726,-3.37857604,-0.09146148,0.022905843,-1.374353647,0.48,5.01,12.11,0.01,-0.03,0.01
192409.967,411006743,290244007,82.55,0.299000025,-1.38500011,0,0.205546841,-0.144115865,-0.27089411,0.627869904,-0.116464294,-9.477871895,NaN,NaN,NaN,0.135555223,-3.345488787,-3.51878643,-0.109468363,0.024601687,-1.338228226,1.7,4.41,10.66,0.01,-0.03,0.01
192509.967,411006739,290244011,82.84,0.114000008,-1.463000059,0,-0.1290548,-0.017661916,-0.256481737,0.665803432,-0.373328686,-9.508572578,NaN,NaN,NaN,0.123397745,-3.342023373,-3.656854868,-0.123569727,0.055153009,-1.324239254,1.34,4.04,9.39,0.01,-0.03,0.01
192609.967,411006739,290244011,82.84,0.114000008,-1.463000059,0,-0.161288112,-0.024833048,-0.182215631,0.416420937,-0.472232342,-9.584369659,NaN,NaN,NaN,0.106643237,-3.33245492,-3.792357206,-0.146848083,0.053811572,-1.326650381,0.2,3.82,8.62,0.01,-0.03,0.01
192709.967,411006737,290244010,83.15,0.129000008,-1.549000025,0,-0.102344312,-0.207083985,-0.154571429,0.567710459,-0.243234858,-9.768839836,NaN,NaN,NaN,0.090209387,-3.325238943,-3.932635546,-0.133213073,0.049641512,-1.30531311,-0.26,2.89,7.85,0.01,-0.03,0.01
192809.967,411006737,290244010,83.15,0.129000008,-1.549000025,0,0.031343449,-0.101421937,-0.125020415,0.547521234,-0.450335413,-9.713952065,NaN,NaN,NaN,0.078711629,-3.321635485,-4.073223591,-0.107421137,0.053210065,-1.327469707,-0.21,2.15,7,0.01,-0.03,0.01
192909.967,411006734,290244014,83.34,0.382000029,-1.409000039,0,0.082443252,0.205313489,-0.12053553,0.585956931,-0.14578782,-9.618224144,NaN,NaN,NaN,0.0779268,-3.32658124,-4.216497898,-0.065895945,0.028702401,-1.315127969,-0.23,2.86,5.88,0.01,-0.03,0.01
193009.967,411006734,290244014,83.34,0.382000029,-1.409000039,0,0.146621451,0.20409435,-0.082135968,0.602898121,-0.465995789,-9.435890198,NaN,NaN,NaN,0.074184492,-3.332654715,-4.359489918,-0.051618908,0.006656192,-1.294173598,0.58,4.07,5.06,0.01,-0.03,0.01
193109.967,411006730,290244020,83.52,0.215000004,-1.151000023,0,0.029046586,-0.14700982,0.0146284,0.6569646,-0.361359924,-9.573476791,NaN,NaN,NaN,0.054074772,-3.335202694,-4.493937492,-0.077109739,0.021820821,-1.290263414,1.02,3.79,4.68,0.01,-0.03,0.01
193209.967,411006730,290244020,83.52,0.215000004,-1.151000023,0,-0.230867222,-0.190397918,0.063298054,0.660247087,-0.120985396,-9.831439972,NaN,NaN,NaN,0.032708682,-3.331801653,-4.629461288,-0.085991658,0.042772807,-1.295089126,0.04,2.91,4.99,0.01,-0.03,0.01
193309.967,411006727,290244025,83.73,0.181000009,-1.247000098,0,-0.157076478,-0.147265151,0.059309214,0.601556659,-0.378945887,-9.71722126,NaN,NaN,NaN,0.014588863,-3.319992065,-4.755576611,-0.071895175,0.05449108,-1.274174929,-0.28,2.42,5.82,0.01,-0.03,0.01
193409.967,411006727,290244025,83.73,0.181000009,-1.247000098,0,0.056496333,0.035400584,0.074652508,0.568150222,-0.310542047,-9.369111061,NaN,NaN,NaN,-0.002107859,-3.303838253,-4.881393433,-0.050979696,0.072029695,-1.274623036,-0.29,2.3,6.61,0.01,-0.03,0.01
193509.967,411006727,290244030,83.95,0.185000002,-1.259000063,0,-0.075792171,0.020820327,0.075865224,0.554706216,-0.239388943,-9.596449852,NaN,NaN,NaN,-0.014095142,-3.286951542,-5.00545454,-0.025473243,0.072932377,-1.27959168,-0.74,2.47,7.2,0.01,-0.03,0.01
193609.967,411006727,290244030,83.95,0.185000002,-1.259000063,0,-0.064290926,0.146687269,0.044545822,0.719098866,-0.234344542,-9.838125229,NaN,NaN,NaN,-0.017299041,-3.269179106,-5.134161949,-0.008238908,0.07731659,-1.286994815,-0.95,3.17,7.52,0.01,-0.03,0.01
193709.967,411006728,290244035,84.12,0.108000003,-1.183000088,0,0.008872808,0.133694559,0.008001668,0.728020012,-0.274154395,-9.774324417,NaN,NaN,NaN,-0.010981217,-3.253164768,-5.261362553,0.018641934,0.063553803,-1.303238511,-0.96,3.91,7.77,0.01,-0.03,0.01
193809.967,411006728,290244035,84.12,0.108000003,-1.183000088,0,0.063618034,0.238830775,0.000343135,0.545050025,-0.326788723,-9.660243034,NaN,NaN,NaN,-0.010981217,-3.253164768,-5.261362553,0.018641934,0.063553803,-1.303238511,-0.96,3.91,7.77,0.01,-0.03,0.01
193909.967,411006726,290244034,84.38,0.159000009,-1.173000097,0,-0.017356087,0.180158317,0.002719746,0.468248636,-0.154439077,-9.660998344,NaN,NaN,NaN,-0.011361293,-3.241767406,-5.392143726,-0.002897017,0.044214036,-1.294542193,-0.79,5.31,7.78,0.01,-0.03,0.01
194009.967,411006726,290244034,84.38,0.159000009,-1.173000097,0,0.056582939,-0.146188572,-0.030483965,0.592605293,-0.376107246,-9.794885635,NaN,NaN,NaN,-0.017528834,-3.235695601,-5.515054703,-0.036522999,-0.002879554,-1.291685343,-1.18,5.29,7.5,0.01,-0.03,0.01
194109.967,411006726,290244034,84.65,0.039000001,-1.384000063,0,0.046842001,-0.159552053,-0.046148591,0.68498075,-0.363461733,-9.941772461,NaN,NaN,NaN,-0.019011136,-3.240978241,-5.646159172,-0.055959433,-0.053138118,-1.318945646,-1.09,3.93,7.24,0.01,-0.03,0.01
194209.967,411006726,290244034,84.65,0.039000001,-1.384000063,0,0.194201201,0.052176196,-0.060385291,0.608033895,-0.355268866,-9.885324478,NaN,NaN,NaN,-0.017837562,-3.252774715,-5.774604797,-0.022627523,-0.078525841,-1.322938204,0.18,3.36,6.82,0.01,-0.03,0.01
194309.967,411006726,290244036,84.94,0.098000005,-1.438000083,0,0.093763471,0.078260742,-0.069319546,0.449678481,-0.445990294,-9.6889534,NaN,NaN,NaN,-0.013458146,-3.261346817,-5.910685062,-0.009832799,-0.085174158,-1.323795795,1.21,3.81,6.57,0.01,-0.03,0.01
194409.967,411006726,290244036,84.94,0.098000005,-1.438000083,0,-0.040614128,0.152825013,-0.05279053,0.595383823,-0.137672171,-9.590062141,NaN,NaN,NaN,-0.008994417,-3.268149853,-6.046290874,-0.018582975,-0.072294131,-1.326083779,1.05,4.58,6.35,0.01,-0.03,0.01
194509.967,411006724,290244037,85.24,0.13000001,-1.36500001,0,0.104295574,-0.166605294,-0.119816363,0.631255329,-0.393124551,-9.770657539,NaN,NaN,NaN,-0.002144508,-3.270284653,-6.190189838,-0.024179479,-0.063492142,-1.338291764,1.37,4.27,5.89,0.01,-0.03,0.01
194609.967,411006724,290244037,85.24,0.13000001,-1.36500001,0,-0.04279726,-0.130251318,-0.113304555,0.762104034,-0.507444561,-9.76061821,NaN,NaN,NaN,0.004601961,-3.268017292,-6.332882881,0.012631513,-0.028195659,-1.344071984,1.26,3.43,5.26,0.01,-0.03,0.01
194709.967,411006721,290244032,85.6,0.266000003,-1.553000093,0,-0.038180906,0.122322984,-0.176160499,0.723089576,-0.176141545,-9.510613441,NaN,NaN,NaN,0.007382736,-3.252884865,-6.479587078,0.028109126,0.018857341,-1.363912821,0.57,4.07,4.28,0.01,-0.03,0.01
194809.967,411006721,290244032,85.6,0.266000003,-1.553000093,0,-0.006885622,-0.058696751,-0.234901756,0.761150301,-0.111670293,-9.908356667,NaN,NaN,NaN,0.01030891,-3.239681482,-6.626050949,0.0323168,0.058568548,-1.371064067,0.3,3.99,2.84,0.01,-0.03,0.01
194909.967,411006719,290244030,85.9,0.034000002,-1.458000064,0,-0.077234507,-0.024371557,-0.215286046,0.807205081,-0.10430035,-9.828821182,NaN,NaN,NaN,0.011255132,-3.241999626,-6.775257111,0.044969957,0.07028427,-1.396722198,-0.28,3.74,1.24,0.01,-0.03,0.01
195009.967,411006719,290244030,85.9,0.034000002,-1.458000064,0,0.032395948,-0.027762029,-0.194519669,0.720718682,0.071388945,-9.805758476,NaN,NaN,NaN,0.013239751,-3.241524935,-6.926300526,0.071656823,0.084689423,-1.396059513,-0.12,3.56,359.93,0.01,-0.03,0.01
195109.967,411006721,290244034,86.11,0.195000008,-1.44900012,0,0.076385662,0.044562042,-0.113017499,0.897274911,-0.135777339,-9.613703728,NaN,NaN,NaN,0.017381117,-3.237665653,-7.075429916,0.089848332,0.102653719,-1.400318265,0.21,3.85,359.14,0.01,-0.03,0.01
195209.967,411006721,290244034,86.11,0.195000008,-1.44900012,0,-0.028781891,0.106913701,-0.06195147,0.826744735,-0.014464343,-9.644782066,NaN,NaN,NaN,0.026528493,-3.22829318,-7.231729507,0.110297814,0.126594901,-1.398725867,-0.46,4.18,358.81,0.01,-0.03,0.01
195309.967,411006720,290244038,86.4,0.143000007,-1.484000087,0,-0.176219568,0.03585621,0.000739614,0.77018106,-0.04651029,-9.547912598,NaN,NaN,NaN,0.039617576,-3.215463161,-7.385512352,0.127654523,0.127454028,-1.393855453,-1.09,4.86,358.99,0.01,-0.03,0.01
195409.967,411006720,290244038,86.4,0.143000007,-1.484000087,0,0.025008112,0.177428558,0.10060478,0.852587938,-0.043610718,-9.520030022,NaN,NaN,NaN,0.039617576,-3.215463161,-7.385512352,0.127654523,0.127454028,-1.393855453,-1.09,4.86,358.99,0.01,-0.03,0.01
195509.967,411006718,290244040,86.67,0.072000004,-1.374000072,0,-0.005489811,0.14355956,0.174491584,0.923783541,0.091732688,-9.432396889,NaN,NaN,NaN,0.044307269,-3.200914145,-7.539756298,0.125912026,0.138394684,-1.380791664,-1,5.82,359.82,0.01,-0.03,0.01
195609.967,411006718,290244040,86.67,0.072000004,-1.374000072,0,-0.181993932,-0.001638034,0.252727389,0.728945494,-0.146542341,-9.353983879,NaN,NaN,NaN,0.043666795,-3.185656309,-7.689124584,0.093324631,0.148861513,-1.350322008,-1.62,6.33,1.19,0.01,-0.03,0.01
195709.967,411006717,290244043,86.85,0.027000001,-1.174000025,0,-0.175806046,-0.10810972,0.196593225,0.687001586,-0.182289869,-9.365907669,NaN,NaN,NaN,0.031940933,-3.176609755,-7.839207649,0.070564151,0.123141088,-1.310727954,-2.41,5.38,2.57,0.01,-0.03,0.01
195809.967,411006717,290244043,86.85,0.027000001,-1.174000025,0,-0.191312939,-0.036058884,0.183926404,0.682524383,-0.13698101,-9.652729034,NaN,NaN,NaN,0.018301709,-3.172475338,-7.981654167,0.043544203,0.074358486,-1.304524422,-3.4,5.02,3.65,0.01,-0.03,0.01
195909.967,411006716,290244038,87.2,0.23300001,-1.285000086,0,-0.022262301,0.086929508,0.141294137,0.681126058,-0.195336848,-9.657037735,NaN,NaN,NaN,0.005880105,-3.1758883,-8.121659279,0.026914217,0.019688776,-1.28405416,-3.61,5.5,4.54,0.01,-0.03,0.01
196009.967,411006716,290244038,87.2,0.23300001,-1.285000086,0,0.230622113,0.029019019,0.060443666,0.704631567,-0.300021648,-9.500680923,NaN,NaN,NaN,-0.003715589,-3.183832884,-8.254795074,-0.010835808,-0.033877082,-1.278941393,-2.43,5.82,4.99,0.01,-0.03,0.01
196109.967,411006717,290244038,87.39,0.031000001,-1.237000108,0,0.251935065,-0.025533127,-0.033283927,0.636732221,0.17992878,-9.56662178,NaN,NaN,NaN,-0.00798582,-3.2023561,-8.38735199,-0.017163321,-0.056911372,-1.254778862,-1.01,5.64,4.91,0.01,-0.03,0.01
196209.967,411006717,290244038,87.39,0.031000001,-1.237000108,0,0.082311429,-0.085462756,-0.050830379,0.720920026,0.095599845,-9.587407112,NaN,NaN,NaN,-0.011319978,-3.220253468,-8.512760162,-0.036285877,-0.058683116,-1.25164783,-0.49,5.23,4.51,0.01,-0.03,0.01
196309.967,411006719,290244041,87.54,0.117000006,-1.061000109,0,0.112837344,-0.088373408,-0.080054909,0.722519636,0.087635927,-9.718798637,NaN,NaN,NaN,-0.015336066,-3.22655344,-8.64093399,-0.044433363,-0.024223406,-1.280980587,-0.01,4.62,3.95,0.01,-0.03,0.01
196409.967,411006719,290244041,87.54,0.117000006,-1.061000109,0,-0.113183774,-0.102849968,-0.09590885,0.667148411,-0.042410795,-9.840673447,NaN,NaN,NaN,-0.017535646,-3.227402925,-8.765719414,-0.041555166,-0.009817571,-1.287298799,-0.59,4.06,3.4,0.01,-0.03,0.01
196509.967,411006719,290244044,87.72,0.034000002,-1.129999995,0,-0.127613261,-0.023108471,-0.084544465,0.588469982,0.079809502,-10.02244473,NaN,NaN,NaN,-0.01524053,-3.220607758,-8.888415337,-0.029600387,0.003140435,-1.298586011,-1.47,4.1,3.03,0.01,-0.03,0.01
196609.967,411006719,290244044,87.72,0.034000002,-1.129999995,0,-0.133266419,0.03694072,0.010269931,0.628865838,-0.234767824,-9.846521378,NaN,NaN,NaN,-0.01240281,-3.213903189,-9.014652252,-0.025518667,0.001154692,-1.346188784,-2.31,4.46,3.16,0.01,-0.03,0.01
196709.967,411006717,290244043,87.94,0.195000008,-1.205000043,0,-0.083777159,0.040826395,0.091559492,0.925664306,-0.225870341,-10.00587463,NaN,NaN,NaN,-0.009866763,-3.20962882,-9.142753601,-0.013814586,-0.034737326,-1.357393026,-2.63,4.69,3.69,0.01,-0.03,0.01
196809.967,411006717,290244043,87.94,0.195000008,-1.205000043,0,0.142586529,0.084807195,0.05475229,0.75536108,0.023552116,-9.692414284,NaN,NaN,NaN,-0.012027199,-3.215447903,-9.278385162,-0.011326423,-0.071244247,-1.363718987,-1.85,4.99,4.06,0.01,-0.03,0.01
196909.967,411006713,290244039,88.23,0.225000009,-1.334000111,0,0.18309404,-0.032548074,0.042273276,0.69400245,-0.104088277,-9.648872375,NaN,NaN,NaN,-0.017197706,-3.225919724,-9.412174225,-0.020889217,-0.071054041,-1.358471632,-0.79,4.64,4.42,0.01,-0.03,0.01
197009.967,411006713,290244039,88.23,0.225000009,-1.334000111,0,0.099882402,-0.10767702,0.097343214,0.617440879,-0.123756573,-9.66149044,NaN,NaN,NaN,-0.017197706,-3.225919724,-9.412174225,-0.020889217,-0.071054041,-1.358471632,-0.79,4.64,4.42,0.01,-0.03,0.01
197109.967,411006710,290244036,88.44,0.368000031,-1.357000113,0,-0.157129496,-0.085951783,0.064455278,0.709225714,-0.324727774,-9.670205116,NaN,NaN,NaN,-0.029298052,-3.238994837,-9.551841736,-0.028070783,-0.071040563,-1.356972694,-0.91,3.95,4.88,0.01,-0.03,0.01
197209.967,411006710,290244036,88.44,0.368000031,-1.357000113,0,-0.039802786,0.016144227,0.023807179,0.843852818,-0.244697243,-9.973704338,NaN,NaN,NaN,-0.042908676,-3.254062653,-9.689828873,-0.022538571,-0.105191261,-1.378524423,-1.71,3.46,5.12,0.01,-0.03,0.01
197309.967,411006707,290244034,88.65,0.127000004,-1.332000017,0,0.277685195,0.008933372,-0.006118536,0.838876128,-0.135099635,-9.783044815,NaN,NaN,NaN,-0.058677509,-3.27832818,-9.831480026,0.001074154,-0.134344414,-1.384803891,-0.67,3.63,5.06,0.01,-0.03,0.01
197409.967,411006707,290244034,88.65,0.127000004,-1.332000017,0,0.157902732,0.15463078,-0.068645895,0.694286346,-0.115991585,-9.362710953,NaN,NaN,NaN,-0.071921557,-3.304628372,-9.974877357,0.015144191,-0.120727807,-1.357691765,1.25,4.6,4.72,0.01,-0.03,0.01
197509.967,411006705,290244030,88.87,0.384000003,-1.225000024,0,-0.150912553,-0.002087781,-0.08290641,0.879675806,-0.123888455,-9.517827034,NaN,NaN,NaN,-0.087231055,-3.323743582,-10.11773491,0.000974688,-0.098046497,-1.331907392,0.98,4.81,4.23,0.01,-0.03,0.01
197609.967,411006705,290244030,88.87,0.384000003,-1.225000024,0,-0.198151693,-0.100095674,-0.013251973,0.876783192,-0.145561859,-9.593855858,NaN,NaN,NaN,-0.099948555,-3.33730197,-10.25647163,0.008915531,-0.090801917,-1.329098463,-0.33,4.32,4,0.01,-0.03,0.01
197709.967,411006703,290244027,89.09,0.047000002,-1.243000031,0,0.143834919,-0.065312855,0.017568547,0.786260486,-0.382109195,-9.597892761,NaN,NaN,NaN,-0.116966061,-3.364409208,-10.39649391,0.028820276,-0.110730074,-1.337031007,-0.14,3.73,3.91,0.01,-0.03,0.01
197809.967,411006703,290244027,89.09,0.047000002,-1.243000031,0,0.088854022,0.019946083,0.002217431,0.799883425,-0.422861218,-9.505876541,NaN,NaN,NaN,-0.125241369,-3.386991262,-10.53180504,0.047677469,-0.12609759,-1.319885015,0.68,3.9,3.99,0.01,-0.03,0.01
197909.967,411006703,290244030,89.25,0.091000006,-1.152999997,0,0.118258603,0.128935128,0.042989984,0.910429537,-0.498589396,-9.519613266,NaN,NaN,NaN,-0.134554833,-3.400662661,-10.66690636,0.05090047,-0.110928357,-1.291017294,1.18,4.33,4.23,0.01,-0.03,0.01
198009.967,411006703,290244030,89.25,0.091000006,-1.152999997,0,-0.004138088,0.034224495,0.057615433,0.795182049,-0.156094581,-9.752884865,NaN,NaN,NaN,-0.140786961,-3.408654451,-10.79735756,0.060628224,-0.077740356,-1.303537965,1.05,4.46,4.57,0.01,-0.03,0.01
198109.967,411006702,290244030,89.42,0.181000009,-1.131000042,0,-0.070666619,-0.092918672,0.062911578,0.700870812,-0.249167919,-9.727754593,NaN,NaN,NaN,-0.143747091,-3.411681652,-10.9233017,0.056444064,-0.067802168,-1.305399179,0.87,4.27,4.93,0.01,-0.03,0.01
198209.967,411006702,290244030,89.42,0.181000009,-1.131000042,0,-0.047022976,0.006213188,0.055376906,0.901047707,-0.185443923,-9.792732239,NaN,NaN,NaN,-0.147930086,-3.414303303,-11.05035019,0.081201494,-0.047358982,-1.292860985,0.86,4.27,5.33,0.01,-0.03,0.01
198309.967,411006699,290244028,89.68,0.188000008,-1.295000076,0,-0.0682064,-0.043177012,0.08020965,0.784920454,-0.155083567,-9.91137886,NaN,NaN,NaN,-0.155655339,-3.417743921,-11.17582607,0.077199943,-0.027550157,-1.319595456,0.81,4.15,5.72,0.01,-0.03,0.01
198409.967,411006699,290244028,89.68,0.188000008,-1.295000076,0,-0.022573452,-0.031772368,0.063540988,0.81010282,-0.14773044,-9.847554207,NaN,NaN,NaN,-0.163097247,-3.423079729,-11.31032562,0.075652257,-0.013291689,-1.350523829,0.54,4.01,6.03,0.01,-0.03,0.01
198509.967,411006699,290244026,89.85,0.312000006,-1.317000031,0,-0.010928665,0.000871186,0.070105381,0.783664346,-0.246342808,-9.80471611,NaN,NaN,NaN,-0.167518139,-3.428456306,-11.44831944,0.088537544,-0.001314803,-1.357574582,0.39,4.29,6.24,0.01,-0.03,0.01
198609.967,411006699,290244026,89.85,0.312000006,-1.317000031,0,-0.005971038,0.045374285,0.032118537,0.766236961,-0.324461132,-9.774477959,NaN,NaN,NaN,-0.167518139,-3.428456306,-11.44831944,0.088537544,-0.001314803,-1.357574582,0.39,4.29,6.24,0.01,-0.03,0.01
198709.967,411006699,290244026,90.02,0.081,-1.247000098,0,0.072119214,-0.005992768,0.036734469,0.832348526,-0.499360442,-9.737407684,NaN,NaN,NaN,-0.171308175,-3.442046165,-11.58785915,0.078151181,-0.005271905,-1.362861276,0.72,4.57,6.31,0.01,-0.03,0.01
198809.967,411006699,290244026,90.02,0.081,-1.247000098,0,-0.000204745,-0.023531457,0.046351399,0.726269484,-0.452103347,-9.799395561,NaN,NaN,NaN,-0.172877446,-3.458896875,-11.72442436,0.083759792,-0.02322549,-1.369065642,1.12,4.48,6.37,0.01,-0.03,0.02
198909.967,411006700,290244027,90.21,0.216000006,-1.147000074,0,-0.059300855,0.016303012,0.060828857,0.849902153,-0.364385605,-9.94285202,NaN,NaN,NaN,-0.180060804,-3.466281652,-11.86557198,0.07793618,-0.01752359,-1.385164976,0.82,4.41,6.76,0.01,-0.03,0.01
199009.967,411006700,290244027,90.21,0.216000006,-1.147000074,0,-0.024623534,0.023381369,0.01294398,0.761248052,-0.517861426,-9.805327415,NaN,NaN,NaN,-0.187837243,-3.47185111,-12.0004549,0.070091143,-0.016472129,-1.401586771,0.71,4.6,7.03,0.01,-0.03,0.01
199109.967,411006703,290244028,90.33,0.167000011,-1.089000106,0,0.084764078,0.031161111,-0.019080212,0.823776007,-0.21422793,-9.706543922,NaN,NaN,NaN,-0.186759263,-3.477814674,-12.13323879,0.05841472,-0.024634877,-1.392011642,0.93,4.64,6.92,0.01,-0.03,0.02
199209.967,411006703,290244028,90.33,0.167000011,-1.089000106,0,0.19701913,0.00363953,-0.070022054,0.69955194,-0.260742068,-9.619338989,NaN,NaN,NaN,-0.182420671,-3.482285261,-12.26201344,0.0679923,-0.019301979,-1.364557981,2.32,4.99,6.38,0.01,-0.03,0.02
199309.967,411006702,290244028,90.65,0.23300001,-1.220000029,0,0.056877729,-0.027572174,-0.08314997,0.723423362,-0.291491032,-9.5305233,NaN,NaN,NaN,-0.178102881,-3.484137297,-12.38812923,0.056974258,0.028384231,-1.33418119,2.81,5,5.79,0.01,-0.03,0.02
199409.967,411006702,290244028,90.65,0.23300001,-1.220000029,0,-0.181098104,-0.023591202,-0.040586405,0.621565521,-0.275576591,-9.935300827,NaN,NaN,NaN,-0.173801795,-3.477551699,-12.51511002,0.041344985,0.063451491,-1.355601788,1.63,4.83,5.39,0.01,-0.03,0.02
199509.967,411006702,290244035,90.88,0.208000004,-1.380000114,0,-0.218409568,-0.043007031,-0.030385874,0.641026497,-0.449242234,-9.926781654,NaN,NaN,NaN,-0.168650091,-3.456938982,-12.64302921,0.037633974,0.080008917,-1.375453234,0.36,4.78,5.17,0.01,-0.03,0.02
199609.967,411006702,290244035,90.88,0.208000004,-1.380000114,0,-0.076009192,0.087482207,-0.011174187,0.698444128,-0.191608652,-9.841142654,NaN,NaN,NaN,-0.167164445,-3.435845137,-12.77922535,0.016053841,0.084520541,-1.39252615,-0.37,5.06,5.14,0.01,-0.03,0.02
199709.967,411006701,290244039,91.13,0.003,-1.387000084,0,-0.040823396,-0.093764849,0.031748548,0.578591645,-0.16725947,-9.836013794,NaN,NaN,NaN,-0.175101817,-3.411905766,-12.91439915,-0.009778117,0.089247406,-1.410595775,-0.35,4.77,5.42,0.01,-0.03,0.02
199809.967,411006701,290244039,91.13,0.003,-1.387000084,0,0.018959025,-0.134218648,-0.045027282,0.708163381,-0.381336778,-9.707442284,NaN,NaN,NaN,-0.184655413,-3.390925169,-13.05214882,-0.03492634,0.090023622,-1.411925793,0.04,4.11,5.23,0.01,-0.03,0.02
199909.967,411006701,290244041,91.36,0.097000003,-1.40200007,0,0.166962653,-0.345196724,-0.057448491,0.546069145,-0.393079907,-9.759842873,NaN,NaN,NaN,-0.193699434,-3.374228954,-13.18836498,-0.022601753,0.101671688,-1.405949593,1.1,2.27,4.85,0.01,-0.03,0.02
200009.967,411006701,290244041,91.36,0.097000003,-1.40200007,0,-0.01521286,0.015900321,-0.043558288,0.59122777,-0.463130593,-9.657985687,NaN,NaN,NaN,-0.194657698,-3.357978344,-13.32967854,0.015786039,0.129371062,-1.423787951,0.74,2.29,4.52,0.01,-0.03,0.02
200109.967,411006701,290244043,91.61,0.018000001,-1.42900002,0,-0.106739812,0.223318085,-0.029335687,0.822706759,-0.241793737,-9.772295952,NaN,NaN,NaN,-0.189175859,-3.342667818,-13.46901798,0.043294773,0.126129627,-1.421554923,0.05,3.6,4.32,0.01,-0.03,0.02
200209.967,411006701,290244043,91.61,0.018000001,-1.42900002,0,0.035437644,0.220911697,-0.014304083,0.543274224,-0.27142024,-9.429657936,NaN,NaN,NaN,-0.189175859,-3.342667818,-13.46901798,0.043294773,0.126129627,-1.421554923,0.05,3.6,4.32,0.01,-0.03,0.02
200309.967,411006700,290244049,91.83,0.305000007,-1.339000106,0,0.111651666,-0.082303375,-0.036052559,0.736060619,-0.078274399,-9.394011497,NaN,NaN,NaN,-0.1865623,-3.329300642,-13.60881901,0.03393162,0.131442428,-1.390809894,0.36,4.31,4.19,0.01,-0.03,0.02
200409.967,411006700,290244049,91.83,0.305000007,-1.339000106,0,-0.150205418,-0.221431196,0.021881057,0.691592872,-0.379591882,-9.782391548,NaN,NaN,NaN,-0.186189786,-3.316548824,-13.74456024,0.038170561,0.151703909,-1.387622476,0.44,3.62,4.09,0.01,-0.03,0.02
200509.967,411006700,290244056,92.07,0.128000006,-1.376000047,0,-0.131795272,-0.011062492,0.061433721,0.711942136,-0.597444057,-10.00766373,NaN,NaN,NaN,-0.189739376,-3.291897297,-13.88816261,0.057705648,0.152133629,-1.429442406,-0.52,2.92,4.45,0.01,-0.03,0.02
200609.967,411006700,290244056,92.07,0.128000006,-1.376000047,0,-0.210142806,-0.051884674,0.070920072,0.725923598,-0.551470816,-10.04648685,NaN,NaN,NaN,-0.190467566,-3.268176556,-14.03133488,0.100204252,0.106160492,-1.453974366,-1.8,2.81,5.02,0.01,-0.03,0.02
200709.967,411006702,290244059,92.3,0.217000008,-1.423000097,0,0.11184036,0.106176957,0.096973196,0.749947667,-0.510202706,-9.721010208,NaN,NaN,NaN,-0.185269251,-3.251483917,-14.18694782,0.145212024,0.05771568,-1.477477074,-1.98,3.15,5.61,0.01,-0.03,0.02
200809.967,411006702,290244059,92.3,0.217000008,-1.423000097,0,0.1866391,0.206488028,0.124531768,0.763683856,-0.442865938,-9.700720787,NaN,NaN,NaN,-0.175992757,-3.242017508,-14.34076309,0.16556555,0.001241238,-1.482317328,-1.11,4.22,6.19,0.01,-0.03,0.02
200909.967,411006705,290244059,92.55,0.181000009,-1.394000053,0,0.137396663,0.086717591,0.065891221,0.834987402,-0.34046936,-9.620136261,NaN,NaN,NaN,-0.161187232,-3.241637468,-14.4954567,0.158580735,-0.027989946,-1.460258961,0.04,4.71,6.53,0.01,-0.03,0.02
201009.967,411006705,290244059,92.55,0.181000009,-1.394000053,0,0.042034637,-0.007214027,0.000444429,0.51954478,-0.464669943,-9.47289753,NaN,NaN,NaN,-0.144595936,-3.243317127,-14.65073872,0.163674667,-0.031671893,-1.438308239,0.66,4.94,6.4,0.01,-0.03,0.02
201109.967,411006708,290244060,92.83,0.243000016,-1.377000093,0,0.078837268,0.031780608,-0.048291504,0.780236423,-0.34539488,-9.373098373,NaN,NaN,NaN,-0.12985228,-3.240184784,-14.79560852,0.171006024,-0.02814489,-1.423004746,0.84,5.03,6.12,0.01,-0.03,0.02
201209.967,411006708,290244060,92.83,0.243000016,-1.377000093,0,-0.034082718,-0.020146497,-0.040258642,0.729311883,-0.390308172,-9.565451622,NaN,NaN,NaN,-0.113253474,-3.237276793,-14.94311047,0.15144369,-0.023962475,-1.406345844,0.55,5.1,5.83,0.01,-0.03,0.02
201309.967,411006711,290244061,93.05,0.126000002,-1.319000006,0,-0.041618325,-0.019057766,-0.050502975,0.622439861,-0.311538577,-9.589971542,NaN,NaN,NaN,-0.096402794,-3.235143661,-15.08523941,0.156546399,-0.042065971,-1.391419649,0.4,5.17,5.56,0.01,-0.03,0.02
201409.967,411006711,290244061,93.05,0.126000002,-1.319000006,0,-0.07158187,0.009664041,-0.063074045,0.780549288,-0.279987127,-9.57238102,NaN,NaN,NaN,-0.081377752,-3.231673479,-15.23064804,0.155312568,-0.026289409,-1.362966418,0.53,5.36,5.21,0.01,-0.03,0.02
201509.967,411006712,290244062,93.29,0.139000013,-1.272000074,0,-0.026284492,-0.021505421,-0.054248251,0.818484008,-0.452562481,-9.569105148,NaN,NaN,NaN,-0.070469387,-3.225660324,-15.3682909,0.125663102,-0.024653129,-1.354679585,0.52,5.52,4.91,0.01,-0.03,0.02
201609.967,411006712,290244062,93.29,0.139000013,-1.272000074,0,0.040313035,-0.014696418,-0.0059571,0.894453645,-0.199616,-9.59479332,NaN,NaN,NaN,-0.061222501,-3.217140436,-15.50749874,0.121348597,-0.019387016,-1.348773122,0.39,5.36,4.84,0.01,-0.03,0.02
201709.967,411006714,290244062,93.48,0.234000012,-1.276000023,0,-0.062747709,-0.023145735,0.009231109,0.908847809,-0.559076726,-9.573182106,NaN,NaN,NaN,-0.052860551,-3.209549427,-15.64245319,0.109198131,-0.02497624,-1.330669403,0.06,5.22,5.06,0.01,-0.03,0.02
201809.967,411006714,290244062,93.48,0.234000012,-1.276000023,0,-0.076416522,-0.011810986,0.064843155,0.893551648,-0.603453517,-9.648626328,NaN,NaN,NaN,-0.052860551,-3.209549427,-15.64245319,0.109198131,-0.02497624,-1.330669403,0.06,5.22,5.06,0.01,-0.03,0.02
201909.967,411006717,290244059,93.72,0.301000029,-1.183000088,0,-0.022849256,-0.009853872,0.065814219,0.668690264,-0.410557538,-9.553562164,NaN,NaN,NaN,-0.044330314,-3.2076931,-15.78061962,0.098675206,-0.03859964,-1.349128008,-0.16,5.22,5.46,0.01,-0.03,0.02
202009.967,411006717,290244059,93.72,0.301000029,-1.183000088,0,0.071962118,0.009259003,0.086411558,0.802763045,-0.286141813,-9.661632538,NaN,NaN,NaN,-0.035469905,-3.211290359,-15.91397095,0.092887238,-0.056702249,-1.34076786,-0.1,5.11,5.94,0.01,-0.03,0.02
202109.967,411006719,290244058,93.92,0.089000002,-1.228000045,0,0.143101767,0.091684863,0.058966108,0.787775099,-0.316236287,-9.467949867,NaN,NaN,NaN,-0.022409813,-3.219798565,-16.05056953,0.086125076,-0.078747623,-1.355280876,0.42,5.56,6.41,0.01,-0.03,0.02
202209.967,411006719,290244058,93.92,0.089000002,-1.228000045,0,0.109079301,0.007536853,0.036811721,0.745710254,-0.446106106,-9.63353157,NaN,NaN,NaN,-0.009352773,-3.229764938,-16.18240166,0.078676239,-0.060733616,-1.350490689,0.95,5.82,6.72,0.01,-0.03,0.02
202309.967,411006721,290244057,94.12,0.268000007,-1.217000008,0,0.010274411,0.004232935,0.019376047,0.799213171,-0.407022923,-9.558839798,NaN,NaN,NaN,-0.002606094,-3.235013008,-16.31976128,0.051293571,-0.060879365,-1.35480392,1,5.83,6.93,0.01,-0.03,0.02
202409.967,411006721,290244057,94.12,0.268000007,-1.217000008,0,-0.074904725,-0.054598741,-0.0190614,0.755438209,-0.328194588,-9.877031326,NaN,NaN,NaN,0.001481257,-3.239559412,-16.45363235,0.030900229,-0.071054064,-1.357334495,1.07,5.52,6.87,0.01,-0.03,0.02
202509.967,411006722,290244056,94.35,0.041000001,-1.258000016,0,0.105271816,-0.052119348,0.025406333,0.721340418,-0.443143904,-9.59336853,NaN,NaN,NaN,0.008505516,-3.246408939,-16.58971405,0.025062274,-0.050330389,-1.372876883,1.25,4.9,6.97,0.02,-0.03,0.02
202609.967,411006722,290244056,94.35,0.041000001,-1.258000016,0,-0.007095735,0.044624671,0.054477893,0.690652907,-0.667306542,-9.639229774,NaN,NaN,NaN,0.014753021,-3.251538754,-16.72977448,0.017083952,-0.058361374,-1.372326255,1.28,5.03,7.37,0.01,-0.03,0.02
202709.967,411006721,290244058,94.56,0.117000006,-1.235000014,0,0.031427026,0.025209719,0.090138443,0.692460239,-0.320754409,-9.643576622,NaN,NaN,NaN,0.016534463,-3.250575542,-16.86736488,-0.000875878,-0.059794825,-1.359021068,1.24,5.25,7.98,0.01,-0.03,0.02
202809.967,411006721,290244058,94.56,0.117000006,-1.235000014,0,-0.133738831,-0.036034066,0.146726325,0.781421065,-0.477112383,-9.634422302,NaN,NaN,NaN,0.014104374,-3.248884439,-17.00749397,-0.014899177,-0.074993409,-1.362254262,0.4,4.98,8.73,0.01,-0.03,0.02
202909.967,411006719,290244059,94.8,0.119000003,-1.303000093,0,-0.090821333,-0.0811124,0.08416409,0.884329975,-0.722171485,-9.936350822,NaN,NaN,NaN,0.003294747,-3.243181467,-17.14458847,-0.026370239,-0.079895593,-1.389824152,0,4.83,8.94,0.01,-0.03,0.02
203009.967,411006719,290244059,94.8,0.119000003,-1.303000093,0,-0.047667805,0.161965653,-0.061799724,0.817160487,-0.332530797,-9.487558365,NaN,NaN,NaN,-0.006121735,-3.243368149,-17.29123116,-0.04498744,-0.103030019,-1.353120327,-0.42,6.08,8.28,0.01,-0.03,0.02
203109.967,411006719,290244058,95.02,0.091000006,-1.177000046,0,0.195856497,0.294850141,-0.211067542,0.410719812,-0.270411402,-9.351336479,NaN,NaN,NaN,-0.018300511,-3.245875359,-17.42835045,-0.095540926,-0.09550491,-1.313484669,0.86,7.24,7,0.01,-0.03,0.02
203209.967,411006719,290244058,95.02,0.091000006,-1.177000046,0,0.33645016,-0.204101518,-0.27363041,0.480668813,-0.167851448,-9.518654823,NaN,NaN,NaN,-0.03284331,-3.24633646,-17.56463623,-0.147161961,-0.06621448,-1.286314487,2.55,5.59,5.29,0.01,-0.03,0.02
203309.967,411006718,290244059,95.19,0.077000007,-1.224000096,0,0.11862316,-0.546243429,-0.253508538,0.681482613,-0.108610027,-9.676511765,NaN,NaN,NaN,-0.047706127,-3.242206812,-17.69595718,-0.157124192,0.005510364,-1.296047449,2.63,2.9,3.58,0.01,-0.03,0.02
203409.967,411006718,290244059,95.19,0.077000007,-1.224000096,0,-0.16828768,-0.289836079,-0.240103975,0.832157552,-0.25754261,-9.939288139,NaN,NaN,NaN,-0.047706127,-3.242206812,-17.69595718,-0.157124192,0.005510364,-1.296047449,2.63,2.9,3.58,0.01,-0.03,0.02
203509.967,411006716,290244061,95.43,0.104000002,-1.198000073,0,-0.21145235,0.047768615,-0.22868146,0.640023351,0.057667878,-9.807347298,NaN,NaN,NaN,-0.058904476,-3.227390766,-17.82993126,-0.118322536,0.062260482,-1.310748696,1.14,2.48,2.06,0.01,-0.03,0.02
203609.967,411006716,290244061,95.43,0.104000002,-1.198000073,0,-0.16903834,0.156908438,-0.168205529,0.753644109,-0.217496902,-9.705723763,NaN,NaN,NaN,-0.065496728,-3.208838224,-17.963274,-0.083701417,0.099284612,-1.324672222,-0.18,3.19,0.83,0.01,-0.03,0.02
203709.967,411006717,290244063,95.61,0.253000021,-1.183000088,0,-0.060389452,0.017015433,-0.109162956,0.775006175,-0.111389033,-9.77632618,NaN,NaN,NaN,-0.071920335,-3.188282251,-18.09963417,-0.063924469,0.110266961,-1.338735819,-1.02,3.67,0.03,0.01,-0.03,0.02
203809.967,411006717,290244063,95.61,0.253000021,-1.183000088,0,-0.066703223,-0.031801239,0.012803094,0.801358581,-0.064043961,-9.866797447,NaN,NaN,NaN,-0.078056782,-3.17031908,-18.23439598,-0.055088852,0.108737253,-1.337395668,-1.3,3.75,359.82,0.01,-0.03,0.02
203909.967,411006716,290244064,95.88,0.232000008,-1.2700001,0,-0.074367672,0.027949564,0.101896219,0.712989151,0.059866454,-9.849987984,NaN,NaN,NaN,-0.071671471,-3.157317162,-18.37168694,-0.040810771,0.079509132,-1.35567224,-1.69,3.6,0.11,0.01,-0.02,0.02
204009.967,411006716,290244064,95.88,0.232000008,-1.2700001,0,-0.086895026,-0.00389849,0.145059258,0.839044988,-0.230837405,-9.824872971,NaN,NaN,NaN,-0.060639001,-3.149629354,-18.50823593,-0.013370081,0.057672143,-1.356568694,-1.99,3.7,0.82,0.01,-0.02,0.02
204109.967,411006714,290244066,96.09,0.060000002,-1.255000114,0,0.022214616,0.093891338,0.183900341,0.770251632,-0.442288458,-9.731271744,NaN,NaN,NaN,-0.066388197,-3.138486147,-18.65046692,-0.011185351,0.028868919,-1.369665146,-1.76,4.33,1.88,0.01,-0.03,0.02
204209.967,411006714,290244066,96.09,0.060000002,-1.255000114,0,0.023831951,-0.002930135,0.194706768,0.840894997,-0.006414003,-9.811757088,NaN,NaN,NaN,-0.070568874,-3.132932425,-18.79342842,-0.016696148,-0.004006649,-1.364227414,-1.7,4.34,2.98,0.01,-0.02,0.02
204309.967,411006712,290244067,96.37,0.133000001,-1.377000093,0,0.063586853,-0.033271894,0.153951615,0.614627779,-0.167551801,-9.872634888,NaN,NaN,NaN,-0.073426813,-3.131430626,-18.93557739,0.001595642,-0.017676713,-1.385005355,-1.42,4.05,3.95,0.01,-0.02,0.02
204409.967,411006712,290244067,96.37,0.133000001,-1.377000093,0,0.088322662,0.072650261,0.118126668,0.51521498,-0.180120662,-9.758378029,NaN,NaN,NaN,-0.077933729,-3.132490873,-19.08332825,0.000815121,-0.043319885,-1.394199371,-1.13,4.35,4.64,0.01,-0.03,0.02
204509.967,411006709,290244068,96.6,0.137000009,-1.334000111,0,-0.003674767,0.052003507,0.070976682,0.590265691,-0.157893002,-9.72021389,NaN,NaN,NaN,-0.088534489,-3.133115768,-19.22879601,-0.020695172,-0.050079394,-1.395672202,-0.9,4.54,5.06,0.01,-0.03,0.02
204609.967,411006709,290244068,96.6,0.137000009,-1.334000111,0,-0.01076499,-0.021654427,0.049258709,0.490267098,-0.15398486,-9.746127129,NaN,NaN,NaN,-0.102396101,-3.133441687,-19.37725639,-0.032785393,-0.069429301,-1.385980248,-1.08,4.15,5.19,0.01,-0.03,0.02
204709.967,411006705,290244068,96.89,0.143000007,-1.372000098,0,-0.001544848,-0.063794822,-0.009160054,0.657959938,-0.447780609,-9.658043861,NaN,NaN,NaN,-0.119689181,-3.132185698,-19.5205307,-0.028462498,-0.084286124,-1.392020226,-1.25,3.65,5.05,0.01,-0.03,0.02
204809.967,411006705,290244068,96.89,0.143000007,-1.372000098,0,-0.000103305,-0.112760216,-0.030670572,0.431062728,-0.269807845,-9.691078186,NaN,NaN,NaN,-0.137218654,-3.133140326,-19.66904068,-0.03251474,-0.087542914,-1.400411844,-1.14,3.24,4.72,0.01,-0.03,0.02
204909.967,411006702,290244065,97.18,0.21100001,-1.432000041,0,0.037519906,-0.062893212,-0.040361427,0.74577868,-0.21317555,-9.670064926,NaN,NaN,NaN,-0.151331514,-3.136746168,-19.81763649,-0.019007394,-0.092196144,-1.394024611,-0.62,3.04,4.34,0.01,-0.03,0.02
205009.967,411006702,290244065,97.18,0.21100001,-1.432000041,0,0.000774103,-0.036461052,-0.05818684,0.656883597,0.074232295,-9.673871994,NaN,NaN,NaN,-0.151331514,-3.136746168,-19.81763649,-0.019007394,-0.092196144,-1.394024611,-0.62,3.04,4.34,0.01,-0.03,0.02
205109.967,411006700,290244062,97.44,0.230000004,-1.467000127,0,-0.028110569,0.011679985,-0.045587227,0.700049341,-0.028075723,-9.64526844,NaN,NaN,NaN,-0.165757418,-3.143175602,-19.97031593,-0.012735863,-0.104421839,-1.371789336,-0.68,2.92,4.02,0.01,-0.03,0.02
205209.967,411006700,290244062,97.44,0.230000004,-1.467000127,0,0.084097475,0.001433809,-0.018138699,0.806258738,-0.238723248,-9.479915619,NaN,NaN,NaN,-0.176224068,-3.152130127,-20.11771202,0.004150883,-0.088305227,-1.373574495,-0.79,2.93,3.77,0.01,-0.03,0.02
205309.967,411006698,290244058,97.71,0.147,-1.388000011,0,0.069758676,0.035525281,-0.003254355,0.722624481,-0.380901396,-9.436019897,NaN,NaN,NaN,-0.189428821,-3.163782835,-20.26807213,0.00822429,-0.097133279,-1.342582822,-0.35,2.93,3.6,0.02,-0.03,0.02
205409.967,411006698,290244058,97.71,0.147,-1.388000011,0,-0.051091414,0.029899644,0.011433555,0.569003105,-0.245516717,-9.456726074,NaN,NaN,NaN,-0.200357646,-3.175980568,-20.41341209,0.01356887,-0.105105922,-1.316201329,-0.39,3.16,3.5,0.02,-0.03,0.02
205509.967,411006698,290244057,97.91,0.135000005,-1.276000023,0,0.03670691,-0.105779693,0.017656809,0.608808458,-0.279142827,-9.454482079,NaN,NaN,NaN,-0.211006314,-3.186739206,-20.5579567,0.017968709,-0.091490157,-1.293911934,-0.34,2.82,3.48,0.02,-0.03,0.02
205609.967,411006698,290244057,97.91,0.135000005,-1.276000023,0,0.039864179,0.017780473,-0.001872439,0.704351723,-0.177048728,-9.517819405,NaN,NaN,NaN,-0.215809017,-3.196848869,-20.69511986,0.032876279,-0.085660785,-1.28129518,-0.32,2.63,3.5,0.02,-0.03,0.02
205709.967,411006698,290244055,98.14,0.169000015,-1.252000093,0,-0.08386448,-0.000854706,0.005842271,0.533333063,-0.052647967,-9.623503685,NaN,NaN,NaN,-0.218107909,-3.203688145,-20.83262444,0.044490837,-0.080611654,-1.274588108,-0.47,2.69,3.53,0.02,-0.03,0.02
205809.967,411006698,290244055,98.14,0.169000015,-1.252000093,0,0.025512323,0.031235738,0.002112278,0.490472466,-0.188867182,-9.535010338,NaN,NaN,NaN,-0.216382354,-3.210710526,-20.9692955,0.066232622,-0.086810395,-1.277164578,-0.56,3.01,3.6,0.02,-0.03,0.02
205909.967,411006700,290244053,98.36,0.201000005,-1.188000083,0,0.092719272,0.004397037,0.030025713,0.4550246,-0.221689478,-9.608584404,NaN,NaN,NaN,-0.211787254,-3.217103004,-21.10153008,0.067633525,-0.065382853,-1.265432239,-0.14,3.15,3.66,0.02,-0.03,0.02
206009.967,411006700,290244053,98.36,0.201000005,-1.188000083,0,0.020900821,-0.034710266,0.011650772,0.455392838,-0.011636078,-9.677840233,NaN,NaN,NaN,-0.205255076,-3.223596811,-21.23657608,0.07904581,-0.047135979,-1.271717906,0,3.2,3.77,0.02,-0.03,0.02
206109.967,411006701,290244051,98.59,0.108000003,-1.163000107,0,-0.078993224,0.087722406,0.010914673,0.503340364,-0.367860913,-9.570477486,NaN,NaN,NaN,-0.197461322,-3.230062723,-21.36457634,0.070527703,-0.064254753,-1.2638973,-0.66,3.42,3.77,0.02,-0.03,0.02
206209.967,411006701,290244051,98.59,0.108000003,-1.163000107,0,0.042409576,0.050810665,0.01610137,0.495842636,-0.236537248,-9.648460388,NaN,NaN,NaN,-0.189893693,-3.235214949,-21.49646568,0.077404015,-0.058934361,-1.266037226,-0.71,3.49,3.83,0.02,-0.03,0.02
206309.967,411006702,290244050,98.8,0.155000001,-1.262000084,0,0.064151987,0.014229473,0.000408372,0.586896598,-0.131744251,-9.763846397,NaN,NaN,NaN,-0.183686227,-3.237545967,-21.62326813,0.0735448,-0.075262472,-1.266088605,-0.4,3.43,3.84,0.02,-0.03,0.02
206409.967,411006702,290244050,98.8,0.155000001,-1.262000084,0,0.085921809,-0.00405481,-0.008558268,0.476455837,-0.190116957,-9.685469627,NaN,NaN,NaN,-0.178819448,-3.242130756,-21.75641441,0.072484896,-0.071267173,-1.276080251,-0.33,3.23,3.8,0.02,-0.03,0.02
206509.967,411006703,290244051,99,0.125,-1.193000078,0,-0.032411732,-0.062509872,0.006085617,0.536593556,-0.07107231,-9.825390816,NaN,NaN,NaN,-0.174062595,-3.247539759,-21.88689232,0.085925952,-0.04770682,-1.285262942,-0.24,3.16,3.73,0.02,-0.03,0.02
206609.967,411006703,290244051,99,0.125,-1.193000078,0,0.033972457,0.013778021,-0.005706165,0.476783931,-0.178440347,-9.827237129,NaN,NaN,NaN,-0.174062595,-3.247539759,-21.88689232,0.085925952,-0.04770682,-1.285262942,-0.24,3.16,3.73,0.02,-0.03,0.02
206709.967,411006703,290244051,99.24,0.086000003,-1.236000061,0,0.00582679,-0.017846288,0.015673539,0.707976997,-0.291986734,-9.763407707,NaN,NaN,NaN,-0.167922989,-3.244960308,-22.02030945,0.097667925,-0.030860744,-1.291488647,0.03,3.21,3.8,0.02,-0.03,0.02
206809.967,411006703,290244051,99.24,0.086000003,-1.236000061,0,-0.110483773,-0.002974872,0.000596245,0.627654433,-0.342457056,-9.722623825,NaN,NaN,NaN,-0.160840958,-3.239504814,-22.15285873,0.088269666,-0.020179754,-1.308695555,-0.3,3.43,3.87,0.02,-0.03,0.02
206909.967,411006706,290244051,99.45,0.256000012,-1.197000027,0,-0.124423787,0.015530346,6.88133E-06,0.514820278,-0.212248132,-9.751716614,NaN,NaN,NaN,-0.156370074,-3.23344779,-22.29083633,0.096841075,-0.011180938,-1.313814163,-1.07,3.65,3.9,0.02,-0.03,0.02
207009.967,411006706,290244051,99.45,0.256000012,-1.197000027,0,-0.028018393,0.039409,-0.01341776,0.471856833,-0.102260754,-9.840312004,NaN,NaN,NaN,-0.151146725,-3.230732203,-22.42489243,0.088440813,-0.031484004,-1.321925998,-1.43,3.74,3.86,0.02,-0.03,0.02
207109.967,411006707,290244050,99.75,0.077000007,-1.393000007,0,0.009230477,0.023758911,-0.002624807,0.564457238,-0.508240998,-9.794129372,NaN,NaN,NaN,-0.139628932,-3.229398727,-22.56219101,0.081381425,-0.042923845,-1.34373033,-1.48,3.74,3.8,0.02,-0.03,0.02
