timestamp(ms),GPS[0].Lat,GPS[0].Lng,GPS[0].Alt,GPS[0].Spd,GPS[0].VZ,GPS[0].Yaw,IMU[0].GyrX,IMU[0].GyrY,IMU[0].GyrZ,IMU[0].AccX,IMU[0].AccY,IMU[0].AccZ,ORGN[0].Lat,ORGN[0].Lng,ORGN[0].Alt,XKF1[0].PN,XKF1[0].PE,XKF1[0].PD,XKF1[0].VN,XKF1[0].VE,XKF1[0].VD,XKF1[0].Roll,XKF1[0].Pitch,XKF1[0].Yaw,XKF1[0].GX,XKF1[0].GY,XKF1[0].GZ
187072.788,NaN,NaN,NaN,NaN,NaN,NaN,NaN,NaN,NaN,NaN,NaN,NaN,NaN,NaN,NaN,-1.8152117729187012,-1.138430118560791,-0.40831702947616577,0.00623006746172905,0.0017392110312357545,-0.015935149043798447,-2.12,0.47,11.97,0.04,0.01,0
187172.788,411001941,290252037,75.26,0.029000001028180122,0.02500000037252903,0,0.0013325519394129515,0.0014195460826158524,-0.00042632329859770834,0.011454603634774685,0.09367523342370987,-9.693017959594727,NaN,NaN,NaN,-1.8152117729187012,-1.138430118560791,-0.40831702947616577,0.00623006746172905,0.0017392110312357545,-0.015935149043798447,-2.12,0.47,11.97,0.04,0.01,0
187272.788,411001941,290252037,75.26,0.029000001028180122,0.02500000037252903,0,0.000258347688941285,0.0001740236475598067,-0.00019831502868328243,0.02312767319381237,0.08829028904438019,-9.691950798034668,NaN,NaN,NaN,-1.8152117729187012,-1.138430118560791,-0.40831702947616577,0.00623006746172905,0.0017392110312357545,-0.015935149043798447,-2.12,0.47,11.97,0.04,0.01,0
187372.788,411001941,290252038,75.24,0.03800000250339508,0.018000001087784767,0,0.0011652070097625256,-0.00045706858509220183,-0.0013213950442150235,0.03028862178325653,0.09081431478261948,-9.708629608154297,NaN,NaN,NaN,-1.8072954416275024,-1.1341071128845215,-0.40537387132644653,0.009067470207810402,0.00226475833915174,-0.015975385904312134,-2.11,0.46,11.97,0.04,0.01,0
187472.788,411001941,290252038,75.24,0.03800000250339508,0.018000001087784767,0,0.001173384371213615,-0.000309318391373381,-0.0006196339963935316,0.02834923192858696,0.09954491257667542,-9.702425003051758,NaN,NaN,NaN,-1.801095724105835,-1.130597472190857,-0.4044395089149475,0.010706741362810135,0.0033220911864191294,-0.015876449644565582,-2.11,0.46,11.96,0.04,0.01,0
187572.788,411001942,290252039,75.23,0.024000000208616257,0.012000000104308128,0,0.0007674310472793877,0.001077019958756864,0.0005262697231955826,0.019280264154076576,0.0941961333155632,-9.691177368164062,NaN,NaN,NaN,-1.7866755723953247,-1.1231391429901123,-0.4028880000114441,0.015283380635082722,0.004256855696439743,-0.015662716701626778,-2.11,0.46,11.96,0.04,0.01,0
187672.788,411001942,290252039,75.23,0.024000000208616257,0.012000000104308128,0,-0.0007518068887293339,-0.0009719186346046627,0.0002482238051015883,0.029999488964676857,0.0838431715965271,-9.687499046325684,0,0,0,-1.7866755723953247,-1.1231391429901123,-0.4028880000114441,0.015283380635082722,0.004256855696439743,-0.015662716701626778,-2.11,0.46,11.96,0.04,0.01,0
187772.788,411001943,290252039,75.23,0.009000000543892384,0.052000001072883606,0,0.00019914131553377956,-0.000012656678336497862,-0.0005517363315448165,0.01889161765575409,0.0887952521443367,-9.6948881149292,0,0,0,-1.7814236879348755,-1.1209852695465088,-0.4027565121650696,0.016370678320527077,0.003752706805244088,-0.015216794796288013,-2.11,0.46,11.95,0.04,0.01,0
187872.788,411001943,290252039,75.23,0.009000000543892384,0.052000001072883606,0,0.00009798843530006707,0.0005561438156291842,-0.0011836132034659386,0.03696626052260399,0.086372010409832,-9.674426078796387,0,0,0,-1.7766331434249878,-1.1189645528793335,-0.4010241627693176,0.01789139024913311,0.0034374569077044725,-0.014760281890630722,-2.12,0.46,11.95,0.04,0.01,0
187972.788,411001943,290252040,75.23,0.015000000596046448,-0.07400000095367432,0,-0.00038446273538284004,0.0017862984677776694,-0.0011792139848694205,0.03820065036416054,0.08570268750190735,-9.696107864379883,0,0,0,-1.7720015048980713,-1.1168773174285889,-0.39887362718582153,0.019123485311865807,0.00292410422116518,-0.013898621313273907,-2.12,0.46,11.95,0.04,0.01,0
188072.788,411001943,290252040,75.23,0.015000000596046448,-0.07400000095367432,0,0.0009124014177359641,0.0003292924084234983,-0.0019935087766498327,0.020369336009025574,0.07865805923938751,-9.695636749267578,0,0,0,-1.7678875923156738,-1.1143901348114014,-0.39808017015457153,0.019255902618169785,0.0024458952248096466,-0.01432975847274065,-2.12,0.46,11.95,0.04,0.01,0
188172.788,411001943,290252041,75.24,0.015000000596046448,-0.012000000104308128,0,0.0004844223731197417,0.0002763480879366398,-0.0005906530423089862,0.018848834559321404,0.08545362949371338,-9.699702262878418,0,0,0,-1.764145016670227,-1.1111173629760742,-0.3993538022041321,0.018794585019350052,0.002368653891608119,-0.015785355120897293,-2.12,0.46,11.95,0.04,0.01,0
188272.788,411001943,290252041,75.24,0.015000000596046448,-0.012000000104308128,0,0.0018482350278645754,0.00009870161738945171,0.0012464671162888408,0.008212549611926079,0.0907173678278923,-9.681026458740234,0,0,0,-1.7603060007095337,-1.107261300086975,-0.4023248553276062,0.01832382008433342,0.0028273107018321753,-0.016307739540934563,-2.11,0.46,11.95,0.04,0.01,0
188372.788,411001944,290252041,75.22,0.11100000888109207,-0.04000000283122063,0,0.000492959632538259,-0.0002388324064668268,-0.0015848651528358457,0.02201666682958603,0.0896894708275795,-9.69250774383545,0,0,0,-1.7567765712738037,-1.1035717725753784,-0.40540772676467896,0.018500203266739845,0.0034027104265987873,-0.017315112054347992,-2.11,0.46,11.94,0.04,0.01,0
188472.788,411001944,290252041,75.22,0.11100000888109207,-0.04000000283122063,0,0.0005047906306572258,0.0006630838033743203,0.00021180494513828307,0.018139153718948364,0.08812673389911652,-9.674040794372559,0,0,0,-1.7501485347747803,-1.1004185676574707,-0.4082438349723816,0.020535815507173538,0.0036705711390823126,-0.019067328423261642,-2.11,0.46,11.94,0.04,0.01,0
188572.788,411001945,290252042,75.22,0.03800000250339508,-0.02500000037252903,0,0.0010412392439320683,-0.00021835921506863087,-0.0011381434742361307,0.019699497148394585,0.08731914311647415,-9.702088356018066,0,0,0,-1.7414021492004395,-1.0978202819824219,-0.4117071032524109,0.023999255150556564,0.0034437663853168488,-0.020206628367304802,-2.11,0.45,11.94,0.04,0.01,0
188672.788,411001945,290252042,75.22,0.03800000250339508,-0.02500000037252903,0,0.0013769972138106823,-0.0002598404826130718,0.0001364290073979647,0.019854778423905373,0.10722438991069794,-9.678790092468262,0,0,0,-1.7349450588226318,-1.09488046169281,-0.4139118790626526,0.025314196944236755,0.00430968776345253,-0.02108074724674225,-2.11,0.44,11.94,0.04,0.01,0
188772.788,411001943,290252043,75.22,0.06200000271201134,-0.026000000536441803,0,0.0025371082592755556,-0.00010926867980742816,-0.00004857590465690009,0.028729548677802086,0.07163374871015549,-9.689004898071289,0,0,0,-1.7308589220046997,-1.0912401676177979,-0.4168397784233093,0.025272022932767868,0.004131363704800606,-0.02256838232278824,-2.1,0.44,11.94,0.04,0.01,0
188872.788,411001943,290252043,75.22,0.06200000271201134,-0.026000000536441803,0,0.001780664431862533,0.00020749551185872406,-0.0001177956655737944,0.014650029130280018,0.09758878499269485,-9.707439422607422,0,0,0,-1.7288528680801392,-1.0877195596694946,-0.41867560148239136,0.02381167747080326,0.005078131798654795,-0.023427197709679604,-2.1,0.45,11.93,0.04,0.01,0
188972.788,411001943,290252044,75.21,0.02200000174343586,-0.03100000135600567,0,0.0018897699192166328,0.00029808047111146147,0.00019130138389300533,0.02772764302790165,0.08973324298858643,-9.698833465576172,0,0,0,-1.7292975187301636,-1.0839228630065918,-0.4189097285270691,0.020820526406168938,0.0058418866246938705,-0.024022748693823814,-2.1,0.45,11.93,0.04,0.01,0
189072.788,411001943,290252044,75.21,0.02200000174343586,-0.03100000135600567,0,0.0013155635679140687,0.0011902648257091641,0.0013854751596227288,0.03084021992981434,0.09277559816837311,-9.682390213012695,0,0,0,-1.729063868522644,-1.0804256200790405,-0.4183555245399475,0.018491629511117935,0.006620184984058142,-0.02367270551621914,-2.09,0.46,11.93,0.04,0.01,0
189172.788,411001943,290252044,75.2,0.01900000125169754,0.007000000216066837,0,0.0018143018241971731,0.0012922254391014576,-0.00015654895105399191,0.014069332741200924,0.08813213557004929,-9.683765411376953,0,0,0,-1.7279257774353027,-1.0777854919433594,-0.4192691445350647,0.01750510185956955,0.0068537513725459576,-0.024163059890270233,-2.1,0.46,11.93,0.04,0.01,0
189272.788,411001943,290252044,75.2,0.01900000125169754,0.007000000216066837,0,0.0005423526163212955,0.00023912134929560125,-0.0006842717994004488,0.028991861268877983,0.08585968613624573,-9.68145751953125,0,0,0,-1.7270187139511108,-1.0754657983779907,-0.420219361782074,0.01686428301036358,0.006380348466336727,-0.024427132681012154,-2.1,0.46,11.92,0.04,0.01,0
189372.788,411001942,290252045,75.18,0.018000001087784767,0.0650000050663948,0,0.0012557690497487783,0.0013217978412285447,-0.0014997171238064766,0.012196389958262444,0.08053817600011826,-9.693635940551758,0,0,0,-1.726478934288025,-1.0732841491699219,-0.4207765460014343,0.014886860735714436,0.0059372237883508205,-0.02427365630865097,-2.1,0.47,11.92,0.04,0.01,0
189472.788,411001942,290252045,75.18,0.018000001087784767,0.0650000050663948,0,0.0014899818925186992,0.0013049265835434198,-0.002365401014685631,0.022207852452993393,0.09588437527418137,-9.690662384033203,0,0,0,-1.725494146347046,-1.0712668895721436,-0.4211506247520447,0.014063481241464615,0.005715544335544109,-0.024280549958348274,-2.1,0.47,11.92,0.04,0.01,0
189572.788,411001942,290252045,75.16,0.0020000000949949026,0.013000000268220901,0,0.0006614289013668895,-0.0008277215529233215,-0.0017825094982981682,0.021627916023135185,0.08146935701370239,-9.690998077392578,0,0,0,-1.7239571809768677,-1.06923246383667,-0.4198376536369324,0.013318991288542747,0.005089104641228914,-0.023622727021574974,-2.1,0.47,11.91,0.04,0.01,0
189672.788,411001942,290252045,75.16,0.0020000000949949026,0.013000000268220901,0,0.0014479107921943069,-0.00028818531427532434,-0.0008569847559556365,0.026577111333608627,0.0805116817355156,-9.698734283447266,0,0,0,-1.7225109338760376,-1.0670949220657349,-0.4187416434288025,0.01268576830625534,0.004757334478199482,-0.022124791517853737,-2.1,0.47,11.91,0.04,0.01,0
189772.788,411001941,290252046,75.15,0.03100000135600567,-0.003000000026077032,0,0.0006795022636651993,-0.0012561603216454387,0.0003605458186939361,0.010564052499830723,0.08853580057621002,-9.688383102416992,0,0,0,-1.721120834350586,-1.0645259618759155,-0.4179103970527649,0.011626280844211578,0.0050291637890040874,-0.02043433114886284,-2.1,0.47,11.91,0.04,0.01,0
189872.788,411001941,290252046,75.15,0.03100000135600567,-0.003000000026077032,0,0.0001462887303205207,-0.0009609418921172619,-0.00018357181397732347,0.019769778475165367,0.09936129301786423,-9.710968017578125,0,0,0,-1.7209835052490234,-1.0611003637313843,-0.41564077138900757,0.009886587969958782,0.005693892948329449,-0.02038128487765789,-2.1,0.47,11.9,0.04,0.01,0
189972.788,411001941,290252047,75.13,0.014000000432133675,0.01600000075995922,0,0.002517273649573326,0.0022799032740294933,-0.0003139789623674005,0.013863923959434032,0.09590696543455124,-9.687899589538574,0,0,0,-1.7214531898498535,-1.0579684972763062,-0.4132806658744812,0.008137773722410202,0.0066505540162324905,-0.019806446507573128,-2.09,0.48,11.9,0.04,0.01,0
190072.788,411001941,290252047,75.13,0.014000000432133675,0.01600000075995922,0,0.001162025728262961,-0.0003296580689493567,0.0000559871295990888,0.005517322570085522,0.09668000042438507,-9.674565315246582,0,0,0,-1.7216664552688599,-1.0552349090576172,-0.4115331768989563,0.006604256108403206,0.007157992105931044,-0.0184362530708313,-2.09,0.48,11.9,0.04,0.01,0
190172.788,411001940,290252048,75.11,0.03500000014901161,0.04700000211596489,0,0.0008575738174840808,-0.00010409557580715045,-0.00035561941331252456,0.026680799201130867,0.0877952054142952,-9.699040412902832,0,0,0,-1.721563696861267,-1.052753210067749,-0.4092941880226135,0.005290987901389599,0.0070901550352573395,-0.01791129820048809,-2.1,0.48,11.9,0.04,0.01,0
190272.788,411001940,290252048,75.11,0.03500000014901161,0.04700000211596489,0,0.000862155226059258,0.0005829530418850482,-0.0009110374376177788,0.024682244285941124,0.1004929468035698,-9.670079231262207,0,0,0,-1.7209504842758179,-1.0495150089263916,-0.40762001276016235,0.004516368731856346,0.007447248324751854,-0.016880061477422714,-2.1,0.48,11.9,0.04,0.01,0
190372.788,411001940,290252049,75.11,0.01100000087171793,-0.03400000184774399,0,0.0009682948584668338,-0.00017193553503602765,0.00012928590876981616,0.025538723915815353,0.09435436129570007,-9.681519508361816,0,0,0,-1.719608187675476,-1.045076608657837,-0.4062137007713318,0.0052302186377346516,0.008809824474155903,-0.0164200272411108,-2.1,0.48,11.9,0.04,0.01,0
190472.788,411001940,290252049,75.11,0.01100000087171793,-0.03400000184774399,0,0.000811534293461591,0.0010037507163360715,-0.0026426895055919886,0.024304982274770737,0.08877504616975784,-9.707770347595215,0,0,0,-1.7182656526565552,-1.040270209312439,-0.4065391421318054,0.005713743157684803,0.010001321323215961,-0.016909930855035782,-2.09,0.48,11.9,0.04,0.01,0
190572.788,411001939,290252050,75.11,0.03100000135600567,-0.004000000189989805,0,0.0016194031341001391,-0.0009082064498215914,0.0006750967004336417,0.025890950113534927,0.085392065346241,-9.700016021728516,0,0,0,-1.7170381546020508,-1.0358796119689941,-0.40763765573501587,0.005922291427850723,0.010455545969307423,-0.01681741327047348,-2.09,0.48,11.9,0.04,0.01,0
190672.788,411001939,290252050,75.11,0.03100000135600567,-0.004000000189989805,0,0.000530651886947453,0.0006634399760514498,0.00012446686741895974,0.02777540124952793,0.09689642488956451,-9.701662063598633,0,0,0,-1.7170599699020386,-1.0320956707000732,-0.4088900685310364,0.004697511903941631,0.010864906013011932,-0.017888711765408516,-2.09,0.48,11.9,0.04,0.01,0
190772.788,411001939,290252050,75.09,0.012000000104308128,-0.029000001028180122,0,0.00039705363451503217,-0.0014819306088611481,-0.00014894036576151848,0.018187105655670166,0.09101951122283936,-9.68313217163086,0,0,0,-1.7176798582077026,-1.0290898084640503,-0.41057711839675903,0.0037829990033060312,0.01054336503148079,-0.01795620284974575,-2.1,0.48,11.89,0.04,0.01,0
190872.788,411001939,290252050,75.09,0.012000000104308128,-0.029000001028180122,0,0.0011570269707590342,-0.00010211855260422453,-0.0012729751178994775,0.024109410122036934,0.08353427797555923,-9.67625617980957,0,0,0,-1.718195915222168,-1.0262023210525513,-0.4131404757499695,0.0024397962260991335,0.009874081239104271,-0.01882113143801689,-2.1,0.48,11.89,0.04,0.01,0
190972.788,411001938,290252051,75.09,0.014000000432133675,0.006000000052154064,0,0.00015726751007605344,0.0008052539778873324,-0.0006283010588958859,0.018985552713274956,0.09245448559522629,-9.678581237792969,0,0,0,-1.7185474634170532,-1.0239927768707275,-0.4160347580909729,0.0016052720602601767,0.00946140754967928,-0.018628327175974846,-2.1,0.48,11.88,0.04,0.01,0
191072.788,411001938,290252051,75.09,0.014000000432133675,0.006000000052154064,0,0.001298498478718102,-0.0005491285701282322,0.0003810194320976734,0.017501847818493843,0.08337153494358063,-9.691102027893066,0,0,0,-1.719240665435791,-1.021588921546936,-0.4180547595024109,0.0005038219969719648,0.008735313080251217,-0.018609464168548584,-2.1,0.48,11.88,0.04,0.01,0
191172.788,411001937,290252051,75.09,0.014000000432133675,-0.022000001743435856,0,0.0003542194899637252,-0.000825961004011333,-0.0015592635609209538,0.029102256521582603,0.0757010281085968,-9.699798583984375,0,0,0,-1.7200371026992798,-1.0195010900497437,-0.41835659742355347,-0.0003912480315193534,0.007694299798458815,-0.018621647730469704,-2.1,0.48,11.88,0.04,0.01,0
191272.788,411001937,290252051,75.09,0.014000000432133675,-0.022000001743435856,0,0.0004899979685433209,0.0005044674617238343,-0.0005680055473931134,0.020825285464525223,0.09100760519504547,-9.678589820861816,0,0,0,-1.721041202545166,-1.0173765420913696,-0.41739147901535034,-0.0015050910878926516,0.007331982720643282,-0.01820565015077591,-2.1,0.48,11.88,0.04,0.01,0
191372.788,411001938,290252052,75.08,0.046000003814697266,-0.01600000075995922,0,0.000028819978979299776,0.0017527418676763773,-0.001331090577878058,0.028787817806005478,0.07955513149499893,-9.68567943572998,0,0,0,-1.7220784425735474,-1.0155706405639648,-0.4167012572288513,-0.0021739767398685217,0.006809404585510492,-0.01809105835855007,-2.1,0.49,11.88,0.04,0.01,0
191472.788,411001938,290252052,75.08,0.046000003814697266,-0.01600000075995922,0,0.000637156597804278,-0.0002625717024784535,0.0007365752244368196,0.02423710562288761,0.07937564700841904,-9.686036109924316,0,0,0,-1.7211192846298218,-1.013298749923706,-0.4165223240852356,-0.001017174799926579,0.005732944700866938,-0.017535272985696793,-2.1,0.49,11.88,0.04,0.01,0
191572.788,411001937,290252052,75.09,0.015000000596046448,-0.010000000707805157,0,0.0019074275624006989,0.001124566188082099,-0.00023712875554338098,0.02793874405324459,0.09146484732627869,-9.68332290649414,0,0,0,-1.7192317247390747,-1.0113328695297241,-0.41829949617385864,0.0004587064904626459,0.005318590439856052,-0.017446430400013924,-2.1,0.48,11.88,0.04,0.01,0
191672.788,411001937,290252052,75.09,0.015000000596046448,-0.010000000707805157,0,0.0002528202021494508,-0.00028568212292157114,-0.001012456021271646,0.022013789042830467,0.09088016301393509,-9.695320129394531,0,0,0,-1.7173137664794922,-1.0090056657791138,-0.42021697759628296,0.0018493311945348978,0.004522760398685932,-0.017943281680345535,-2.1,0.48,11.88,0.04,0.01,0
191772.788,411001937,290252053,75.07,0.046000003814697266,-0.015000000596046448,0,0.00022039942268747836,-0.00021546577045228332,-0.0028696691151708364,0.028535930439829826,0.08588313311338425,-9.682026863098145,0,0,0,-1.7158174514770508,-1.0072979927062988,-0.4208245873451233,0.0024805522989481688,0.0036034395452588797,-0.017168039456009865,-2.1,0.47,11.87,0.04,0.01,0
191872.788,411001937,290252053,75.07,0.046000003814697266,-0.015000000596046448,0,0.001364744151942432,-0.001650493941269815,-0.0006768636521883309,0.01398121751844883,0.08741167932748795,-9.686264038085938,0,0,0,-1.7142081260681152,-1.0064905881881714,-0.4218224883079529,0.0030175328720360994,0.0022279717959463596,-0.017553070560097694,-2.11,0.47,11.87,0.04,0.01,0
191972.788,411001937,290252053,75.07,0.020000001415610313,0,0,0.0010115852346643806,0.0016474408330395818,-0.0011118220863863826,0.021414827555418015,0.09118685871362686,-9.68490219116211,0,0,0,-1.7126387357711792,-1.0063406229019165,-0.4226526618003845,0.004029374569654465,0.0003132073907181623,-0.01760796830058098,-2.11,0.47,11.87,0.04,0.01,0
192072.788,411001937,290252053,75.07,0.020000001415610313,0,0,0.0015937621938064694,-0.00025120802456513047,-0.00016411027172580367,0.013544457033276558,0.09081126749515533,-9.678098678588867,0,0,0,-1.7119526863098145,-1.0044828653335571,-0.42242175340652466,0.003964728210121393,0.00021365249995142221,-0.016935592517256737,-2.11,0.47,11.86,0.04,0.01,0
192172.788,411001936,290252054,75.07,0.032999999821186066,0.027000000700354576,0,0.0023826637770980597,0.000184209828148596,-0.0021388577297329903,0.009920336306095123,0.08099344372749329,-9.708855628967285,0,0,0,-1.7117196321487427,-1.0022331476211548,-0.4219755530357361,0.003682489972561598,-0.00012859335402026772,-0.016869258135557175,-2.1,0.47,11.86,0.04,0.01,0
192272.788,411001936,290252054,75.07,0.032999999821186066,0.027000000700354576,0,0.0009274916374124587,-0.0005192648386582733,-0.00032683348399586976,0.021864991635084152,0.08826450258493423,-9.69231128692627,0,0,0,-1.712988018989563,-0.998779833316803,-0.4203278422355652,0.002678328426554799,0.0006747235311195254,-0.016631048172712326,-2.1,0.47,11.86,0.04,0.01,0
192372.788,411001936,290252055,75.06,0.03700000047683716,0.010000000707805157,0,0.0005604653852060437,-0.0004692062793765217,-0.001242222497239709,0.02408994734287262,0.08242090791463852,-9.688063621520996,0,0,0,-1.71479070186615,-0.9955270886421204,-0.41850346326828003,0.0009451674995943902,0.0018444857560098171,-0.01528938952833414,-2.1,0.48,11.86,0.04,0.01,0
192472.788,411001936,290252055,75.06,0.03700000047683716,0.010000000707805157,0,0.0005402698297984898,-0.0005997956614010036,-0.00141901767347008,0.013880531303584576,0.09114021062850952,-9.67809772491455,0,0,0,-1.7151353359222412,-0.9912950396537781,-0.41619569063186646,0.0009748248849064112,0.003492839401587844,-0.013759667053818703,-2.1,0.47,11.86,0.04,0.01,0
192572.788,411001935,290252057,75.06,0.01900000125169754,-0.009000000543892384,0,-0.00014922177069820464,-0.0015924457693472505,-0.0013864451320841908,0.024114875122904778,0.08569584041833878,-9.69389533996582,0,0,0,-1.7147258520126343,-0.9871982336044312,-0.4146130681037903,0.0014021986862644553,0.0046982597559690475,-0.013510898686945438,-2.1,0.47,11.85,0.04,0.01,0
192672.788,411001935,290252057,75.06,0.01900000125169754,-0.009000000543892384,0,0.0017999638803303242,0.0011848912108689547,-0.001095350831747055,0.01959238573908806,0.09125647693872452,-9.666747093200684,0,0,0,-1.7154370546340942,-0.9816153645515442,-0.4162372946739197,0.00041630701161921024,0.006859848741441965,-0.012331276200711727,-2.09,0.46,11.85,0.04,0.01,0
192772.788,411001935,290252057,75.05,0.03100000135600567,-0.02500000037252903,0,0.0010810177773237228,0.0005432035541161895,-0.0008899464155547321,0.01818258687853813,0.09987537562847137,-9.69229793548584,0,0,0,-1.7154370546340942,-0.9816153645515442,-0.4162372946739197,0.00041630701161921024,0.006859848741441965,-0.012331276200711727,-2.09,0.46,11.85,0.04,0.01,0
192872.788,411001935,290252057,75.05,0.03100000135600567,-0.02500000037252903,0,0.0011471337638795376,-0.00030033913208171725,-0.001955583691596985,0.024054409936070442,0.08516619354486465,-9.672097206115723,0,0,0,-1.7160893678665161,-0.9770312309265137,-0.41781216859817505,0.0007409165264107287,0.008706893771886826,-0.012030876241624355,-2.09,0.47,11.85,0.04,0.01,0
192972.788,411001934,290252058,75.06,0.02800000086426735,-0.01600000075995922,0,0.0002132337394868955,-0.00039245825610123575,0.0010379684390500188,0.017075976356863976,0.0945909321308136,-9.71377944946289,0,0,0,-1.7179656028747559,-0.9731365442276001,-0.42004460096359253,-0.0003013406239915639,0.009111686609685421,-0.012894287705421448,-2.09,0.47,11.84,0.04,0.01,0
193072.788,411001934,290252058,75.06,0.02800000086426735,-0.01600000075995922,0,-0.0008135683019645512,-0.00014523322170134634,0.0003272199828643352,0.030485937371850014,0.08742982894182205,-9.675727844238281,0,0,0,-1.7198857069015503,-0.9701050519943237,-0.4223828911781311,-0.0015136192087084055,0.009654596447944641,-0.013028742745518684,-2.1,0.47,11.84,0.04,0.01,0
193172.788,411001933,290252058,75.07,0.01100000087171793,0.0010000000474974513,0,-0.0006831488572061062,-0.0013745777541771531,-0.0013316054828464985,0.013647518120706081,0.0899956077337265,-9.687361717224121,0,0,0,-1.7223238945007324,-0.9675662517547607,-0.42398399114608765,-0.0026071767788380384,0.00884032528847456,-0.012956148944795132,-2.1,0.47,11.84,0.04,0.01,0
193272.788,411001933,290252058,75.07,0.01100000087171793,0.0010000000474974513,0,-0.00001344310112472158,-0.00037891254760324955,-0.001089138793759048,0.02079315297305584,0.09068533033132553,-9.678997993469238,0,0,0,-1.7242090702056885,-0.9659625887870789,-0.4244266152381897,-0.0032973340712487698,0.007456806022673845,-0.01397743634879589,-2.1,0.47,11.84,0.04,0.01,0
193372.788,411001933,290252059,75.06,0.024000000208616257,-0.013000000268220901,0,0.0012857131659984589,0.0006359206163324416,-0.001357721514068544,0.014255134388804436,0.10028910636901855,-9.711155891418457,0,0,0,-1.726254940032959,-0.9638423919677734,-0.4233720898628235,-0.004158558323979378,0.006810219958424568,-0.012559441849589348,-2.11,0.47,11.84,0.04,0.01,0
193472.788,411001933,290252059,75.06,0.024000000208616257,-0.013000000268220901,0,0.0011945513542741537,0.0009257079800590873,0.0001556765055283904,0.032609518617391586,0.08224666863679886,-9.711221694946289,0,0,0,-1.7279512882232666,-0.9622654914855957,-0.42242151498794556,-0.004435744136571884,0.005895556882023811,-0.013310159556567669,-2.1,0.47,11.83,0.04,0.01,0
193572.788,411001933,290252059,75.05,0.03700000047683716,0.014000000432133675,0,0.0020164025481790304,-0.0013218128588050604,0.0011783624067902565,0.02565618045628071,0.081227608025074,-9.679279327392578,0,0,0,-1.7285571098327637,-0.9595674872398376,-0.4215051531791687,-0.0036196112632751465,0.005409504286944866,-0.01252130325883627,-2.11,0.46,11.83,0.04,0.01,0
193672.788,411001933,290252059,75.05,0.03700000047683716,0.014000000432133675,0,0.0005805520922876894,0.00006389331974787659,-0.001121523673646152,0.03147520124912262,0.08925900608301163,-9.707334518432617,0,0,0,-1.728732705116272,-0.9572089910507202,-0.4214251637458801,-0.002665019826963544,0.004847425036132336,-0.012364653870463371,-2.11,0.46,11.83,0.04,0.01,0
193772.788,411001933,290252060,75.05,0.024000000208616257,0.036000002175569534,0,0.0016642655245959759,0.0003165736561641097,-0.00018848804756999016,0.022015422582626343,0.09701058268547058,-9.693269729614258,0,0,0,-1.727743148803711,-0.954637885093689,-0.421874463558197,-0.0007545745465904474,0.00468079000711441,-0.013298668898642063,-2.11,0.45,11.83,0.04,0.01,0
193872.788,411001933,290252060,75.05,0.024000000208616257,0.036000002175569534,0,0.0005465965368784964,0.000490459380671382,-0.000009733012120705044,0.018638484179973602,0.09568274766206741,-9.6845703125,0,0,0,-1.7264879941940308,-0.9525943398475647,-0.42255085706710815,0.0007566328276880085,0.004350060131400824,-0.013028821907937527,-2.11,0.45,11.83,0.04,0.01,0
193972.788,411001933,290252060,75.05,0.03500000014901161,0.01600000075995922,0,0.0009145396761596203,-0.0007806342327967286,-0.001095556071959436,0.021382739767432213,0.08263350278139114,-9.703742027282715,0,0,0,-1.7261301279067993,-0.9505770206451416,-0.4232047200202942,0.0012592962011694908,0.003578326664865017,-0.012958433479070663,-2.11,0.45,11.82,0.04,0.01,0
194072.788,411001933,290252060,75.05,0.03500000014901161,0.01600000075995922,0,0.0014108226168900728,-0.000770782760810107,-0.0010589499725028872,0.025746706873178482,0.0830373540520668,-9.694494247436523,0,0,0,-1.725919485092163,-0.9493461847305298,-0.42342811822891235,0.002265521790832281,0.0026212655939161777,-0.01248418539762497,-2.11,0.45,11.82,0.04,0.01,0
194172.788,411001932,290252060,75.05,0.039000000804662704,0.02200000174343586,0,-0.0006013354286551476,-0.00005395212065195665,-0.0007830265094526112,0.01900733821094036,0.09183155000209808,-9.690218925476074,0,0,0,-1.725518822669983,-0.9483895301818848,-0.42325884103775024,0.0031042308546602726,0.0011608757777139544,-0.01195194385945797,-2.12,0.45,11.82,0.04,0.01,0
194272.788,411001932,290252060,75.05,0.039000000804662704,0.02200000174343586,0,0.001728833420202136,-0.00008464253187412396,-0.0012766296276822686,0.023457156494259834,0.08578941226005554,-9.698763847351074,0,0,0,-1.7249704599380493,-0.9478842616081238,-0.42470699548721313,0.004225925542414188,0.0004375482094474137,-0.011594888754189014,-2.12,0.45,11.82,0.04,0.01,0
194372.788,411001931,290252061,75.04,0.02800000086426735,0.02500000037252903,0,0.001847444917075336,0.0007814458222128451,0.0002461574331391603,0.012866745702922344,0.08863186836242676,-9.713187217712402,0,0,0,-1.726974368095398,-0.9461315870285034,-0.4252557158470154,0.0034143191296607256,0.0002520819252822548,-0.011219867505133152,-2.12,0.45,11.82,0.04,0.01,0
194472.788,411001931,290252061,75.04,0.02800000086426735,0.02500000037252903,0,0.0002558472624514252,0.00015864289889577776,-0.00024318177020177245,0.02361925132572651,0.09584932029247284,-9.681453704833984,0,0,0,-1.7292264699935913,-0.9445573687553406,-0.4259318709373474,0.0023722867481410503,0.00004517624984146096,-0.010405736975371838,-2.11,0.45,11.82,0.04,0.01,0
194572.788,411001931,290252062,75.03,0.02500000037252903,0.03700000047683716,0,0.0009194982121698558,-0.0011743202339857817,-0.000830410048365593,0.022125529125332832,0.0911424532532692,-9.690836906433105,0,0,0,-1.7329155206680298,-0.9418865442276001,-0.42707425355911255,-0.000004102000275452156,0.00026404854725115,-0.01053919829428196,-2.11,0.46,11.82,0.04,0.01,0
194672.788,411001931,290252062,75.03,0.02500000037252903,0.03700000047683716,0,0.000991910812444985,-0.0005913786008022726,-0.0005111311911605299,0.014291560277342795,0.08834066987037659,-9.671163558959961,0,0,0,-1.7363526821136475,-0.9395815134048462,-0.4279335141181946,-0.001682654838077724,0.0004170374304521829,-0.009975772351026535,-2.11,0.46,11.81,0.04,0.01,0
194772.788,411001930,290252062,75.03,0.03800000250339508,-0.027000000700354576,0,0.0009298943914473057,0.00014410853327717632,-0.0014719441533088684,0.009176518768072127,0.0825096145272255,-9.678905487060547,0,0,0,-1.738624095916748,-0.9357937574386597,-0.42813771963119507,-0.0021155045833438635,0.0007829699316062033,-0.00895692128688097,-2.1,0.46,11.81,0.04,0.01,0
194872.788,411001930,290252062,75.03,0.03800000250339508,-0.027000000700354576,0,0.00044277304550632834,-0.0003519666788633912,-0.0009573123534210026,0.018816694617271423,0.09433462470769882,-9.706332206726074,0,0,0,-1.7402169704437256,-0.9324432015419006,-0.4276612401008606,-0.0027590675745159388,0.0015580786857753992,-0.008579419925808907,-2.1,0.45,11.81,0.04,0.01,0
194972.788,411001930,290252063,75.02,0.01900000125169754,0.04200000315904617,0,0.0004938652273267508,0.0006062369793653488,0.0001468171103624627,0.0264054536819458,0.09242542833089828,-9.677543640136719,0,0,0,-1.7436187267303467,-0.9295953512191772,-0.428594172000885,-0.004139473661780357,0.0012307383585721254,-0.007883783429861069,-2.1,0.45,11.81,0.04,0.01,0
195072.788,411001930,290252063,75.02,0.01900000125169754,0.04200000315904617,0,0.0011931642657145858,-0.0011658265721052885,-0.001427602139301598,0.030621306970715523,0.08005394041538239,-9.697574615478516,0,0,0,-1.746402382850647,-0.9278922080993652,-0.43109840154647827,-0.004859024193137884,0.0007327470229938626,-0.0082882484421134,-2.1,0.45,11.81,0.04,0.01,0
195172.788,411001929,290252063,75.02,0.046000003814697266,0.06200000271201134,0,0.0009090810781344771,0.00029743410414084803,0.0015374856302514672,0.019880829378962517,0.07828062772750854,-9.681748390197754,0,0,0,-1.7481780052185059,-0.924639880657196,-0.4317466616630554,-0.004637894686311483,0.0006030806107446551,-0.007626929320394993,-2.1,0.45,11.81,0.04,0.01,0
195272.788,411001929,290252063,75.02,0.046000003814697266,0.06200000271201134,0,-0.000549830321688205,0.0009461055742576718,-0.00009401454735780135,0.01814188063144684,0.08555373549461365,-9.708956718444824,0,0,0,-1.7494183778762817,-0.9221439957618713,-0.4315952658653259,-0.0041840835474431515,0.0003548989479895681,-0.007446078583598137,-2.1,0.45,11.81,0.04,0.01,0
195372.788,411001929,290252063,75.03,0.039000000804662704,0.01900000125169754,0,0.0001339932787232101,0.0000560732587473467,0.00037127421819604933,0.01996314525604248,0.08297159522771835,-9.669727325439453,0,0,0,-1.752312421798706,-0.9204999208450317,-0.42969781160354614,-0.004671986680477858,-0.00013235308870207513,-0.005166053306311369,-2.1,0.45,11.8,0.04,0.01,0
195472.788,411001929,290252063,75.03,0.039000000804662704,0.01900000125169754,0,0.0011211129603907466,0.00029804257792420685,-0.00011556986282812431,0.016324680298566818,0.0910642221570015,-9.700896263122559,0,0,0,-1.7551312446594238,-0.9195863008499146,-0.42785316705703735,-0.00565384142100811,-0.0009449056233279407,-0.003967501223087311,-2.11,0.45,11.8,0.04,0.01,0
195572.788,411001929,290252064,75.04,0.015000000596046448,-0.014000000432133675,0,0.0015864045126363635,0.0009115032735280693,-0.00022872097906656563,0.010969442315399647,0.080591581761837,-9.680078506469727,0,0,0,-1.7558387517929077,-0.9164538383483887,-0.42585569620132446,-0.0038798179011791945,-0.0005642584292218089,-0.0023857380729168653,-2.11,0.45,11.8,0.04,0.01,0
195672.788,411001929,290252064,75.04,0.015000000596046448,-0.014000000432133675,0,-0.00023119678371585906,0.0010000842157751322,-0.0013206807198002934,0.026990370824933052,0.08721791207790375,-9.687901496887207,0,0,0,-1.7562456130981445,-0.9143092036247253,-0.4239214062690735,-0.0032961745746433735,-0.0002594536927063018,-0.0011502832639962435,-2.11,0.44,11.79,0.04,0.01,0
195772.788,411001929,290252064,75.05,0.03500000014901161,0.024000000208616257,0,-0.0004394840507302433,-0.0006172448047436774,-0.0007984327967278659,0.026975246146321297,0.09576953202486038,-9.71349048614502,0,0,0,-1.7565839290618896,-0.9109805226325989,-0.4231610894203186,-0.002111562294885516,0.0009263849933631718,-0.0007536752964369953,-2.1,0.44,11.79,0.04,0.01,0
195872.788,411001929,290252064,75.05,0.03500000014901161,0.024000000208616257,0,0.0015766452997922897,-0.000637077959254384,-0.0009736265637911856,0.018609976395964622,0.08120767027139664,-9.685670852661133,0,0,0,-1.7566927671432495,-0.9080179333686829,-0.4237244725227356,-0.0010431389091536403,0.0020135436207056046,-0.00036631524562835693,-2.11,0.43,11.79,0.04,0.01,0
195972.788,411001928,290252064,75.04,0.011000000871717926,0.04800000041723251,0,0.001175826182588935,0.0006488565122708678,-0.002634683158248663,0.02155214361846447,0.09763970226049423,-9.681285858154297,0,0,0,-1.7582529783248901,-0.9057993292808533,-0.4235723614692688,-0.0005907549639232457,0.0016467765672132373,0.00014092688797973096,-2.11,0.44,11.78,0.04,0.01,0
196072.788,411001928,290252064,75.04,0.011000000871717926,0.04800000041723251,0,-0.00042952076182700694,0.0003595571033656597,-0.0007957480265758932,0.026828935369849205,0.08732140809297562,-9.676243782043457,0,0,0,-1.759818196296692,-0.9043476581573486,-0.42366141080856323,-0.0007023168727755547,0.0010094710160046816,-0.0003914335975423455,-2.11,0.44,11.78,0.04,0.01,0
196172.788,411001928,290252064,75.05,0.05400000140070915,0.01100000087171793,0,0.0002136597177013756,0.00006160992052173242,-0.00033504251041449606,0.015707699581980705,0.08534970879554749,-9.677471160888672,0,0,0,-1.7616513967514038,-0.9010403156280518,-0.4216998219490051,-0.00037327426252886653,0.0011980889830738306,-0.0002167504862882197,-2.11,0.44,11.78,0.04,0.01,0
196272.788,411001928,290252064,75.05,0.05400000140070915,0.01100000087171793,0,0.001169036258943379,0.0003081495815422386,-0.0015895916149020195,0.015481424517929556,0.10402709245681763,-9.678853034973145,0,0,0,-1.7630294561386108,-0.8985465168952942,-0.42030400037765503,-0.0004799222224391997,0.0013967723352834582,0.0009520880994386971,-2.11,0.44,11.78,0.04,0.01,0
196372.788,411001928,290252064,75.06,0.027000000700354573,-0.006000000052154064,0,0.00048663202323950827,0.000014498210475721862,-0.0017083613201975822,0.02623380720615387,0.08936003595590591,-9.685625076293945,0,0,0,-1.7626371383666992,-0.8974221348762512,-0.4186723828315735,0.001873497385531664,0.000930948939640075,0.0009574264986440539,-2.11,0.43,11.78,0.04,0.01,0
196472.788,411001928,290252064,75.06,0.027000000700354573,-0.006000000052154064,0,0.0015331413596868515,-0.00039681728230789304,-0.0014172290684655309,0.009082064032554626,0.08801702409982681,-9.675209045410156,0,0,0,-1.7620145082473755,-0.8968556523323059,-0.41656190156936646,0.002785502001643181,-0.00025806616758927703,0.0020409193821251392,-2.12,0.43,11.77,0.04,0.01,0
196572.788,411001927,290252063,75.08,0.04000000283122063,0.032999999821186066,0,0.0006094501004554331,0.000397373252781108,-0.0004483982047531754,0.019401665776968002,0.0841023251414299,-9.691564559936523,0,0,0,-1.762466311454773,-0.8963733315467834,-0.4152979254722595,0.0036750033032149076,-0.0017587911570444703,0.0011358788469806314,-2.12,0.43,11.76,0.04,0.01,0
196672.788,411001927,290252063,75.08,0.04000000283122063,0.032999999821186066,0,0.00048244514619000256,0.0007468760595656931,-0.0003872569650411606,0.0167158804833889,0.08764518052339554,-9.686487197875977,0,0,0,-1.7625235319137573,-0.8963780999183655,-0.41347557306289673,0.004578396677970886,-0.0028901714831590652,0.001150308409705758,-2.12,0.43,11.76,0.04,0.01,0
196772.788,411001927,290252064,75.09,0.06400000303983688,-0.014000000432133675,0,-0.00003671051672426962,-0.00023564349976368248,-0.0005415587802417576,0.021877974271774292,0.10573504865169525,-9.696037292480469,0,0,0,-1.7655704021453857,-0.8962081074714661,-0.41081780195236206,0.0038157792296260595,-0.004360545426607132,0.002550454344600439,-2.12,0.43,11.76,0.04,0.01,0
196872.788,411001927,290252064,75.09,0.06400000303983688,-0.014000000432133675,0,0.0001072121667675674,0.00016914022853597999,-0.00043713179184123874,0.016011012718081474,0.07916443049907684,-9.708715438842773,0,0,0,-1.7677243947982788,-0.8964551687240601,-0.40792590379714966,0.00334357307292521,-0.005409607198089361,0.0021137911826372147,-2.12,0.43,11.76,0.04,0.01,0
196972.788,411001926,290252064,75.12,0.06300000101327896,-0.058000002056360245,0,0.0011379922507330775,-0.001200043479911983,-0.002804303541779518,0.02652757801115513,0.09485176205635071,-9.699281692504883,0,0,0,-1.7677857875823975,-0.8923639059066772,-0.40577131509780884,0.0049021742306649685,-0.004055350553244352,0.001694309408776462,-2.12,0.43,11.75,0.04,0.01,0
197072.788,411001926,290252064,75.12,0.06300000101327896,-0.058000002056360245,0,-0.0005403287941589952,0.0010148774599656463,-0.00107535847928375,0.022984091192483902,0.10195113718509674,-9.669257164001465,0,0,0,-1.7674249410629272,-0.8894340395927429,-0.4045613408088684,0.006469897925853729,-0.0028956534806638956,0.0023666578345000744,-2.12,0.42,11.75,0.04,0.01,0
197172.788,411001926,290252064,75.14,0.046000003814697266,-0.03400000184774399,0,0.0018401503330096602,0.0004421784251462668,-0.0010252344654873011,0.024936340749263763,0.08387129753828049,-9.701330184936523,0,0,0,-1.7724792957305908,-0.8865809440612793,-0.4062303900718689,0.004485858604311943,-0.0025701283011585474,0.0013934329617768526,-2.12,0.43,11.75,0.04,0.01,0
197272.788,411001926,290252064,75.14,0.046000003814697266,-0.03400000184774399,0,0.0021490242797881365,-0.00015031830116640776,0.00007528858986916031,0.03001527674496174,0.08755650371313095,-9.68765640258789,0,0,0,-1.7756160497665405,-0.8849635124206543,-0.40684884786605835,0.003812671173363924,-0.0022260502446442842,0.00041221966966986656,-2.12,0.43,11.75,0.04,0.01,0
197372.788,411001925,290252065,75.13,0.08300000429153442,0.03400000184774399,0,-0.00025834262487478554,0.00017558301624376327,-0.0005329754203557968,0.03134235739707947,0.08416969329118729,-9.703649520874023,0,0,0,-1.7770445346832275,-0.8805456757545471,-0.4072420001029968,0.004983282182365656,-0.0003587893734220413,-0.0002496247470844537,-2.11,0.43,11.75,0.04,0.01,0
197472.788,411001925,290252065,75.13,0.08300000429153442,0.03400000184774399,0,0.00182394462171942,0.0018312502652406693,-0.0019762669689953327,0.026279376819729805,0.09235426783561707,-9.698277473449707,0,0,0,-1.7777605056762695,-0.8772868514060974,-0.40830332040786743,0.00580779230222106,0.0007378081791102886,-0.0008219734882004559,-2.11,0.43,11.74,0.04,0.01,0
197572.788,411001925,290252066,75.13,0.09000000357627869,0.05100000277161598,0,-0.00020361001952551305,0.0008225354249589145,-0.0008664646302349865,0.013596856035292149,0.09410924464464188,-9.71309757232666,0,0,0,-1.7842739820480347,-0.874375581741333,-0.40834230184555054,0.0028940357733517885,0.001516541582532227,-0.0015999047318473458,-2.11,0.43,11.73,0.04,0.01,0
197672.788,411001925,290252066,75.13,0.09000000357627869,0.05100000277161598,0,-0.00012681308726314434,-0.0006296534556895494,-0.00013436480367090553,0.02175593189895153,0.09685030579566956,-9.676307678222656,0,0,0,-1.7892178297042847,-0.8722777366638184,-0.4090011715888977,0.0005298562464304268,0.00227437075227499,-0.0022592602763324976,-2.11,0.44,11.73,0.04,0.01,0
197772.788,411001925,290252066,75.15,0.02200000174343586,-0.01100000087171793,0,0.0003835424722637981,0.0003632472362369299,-0.0003021861193701625,0.02074239030480385,0.0863444060087204,-9.690532684326172,0,0,0,-1.7891185283660889,-0.8672049045562744,-0.4088253378868103,0.002246714662760496,0.0038823147770017385,-0.0017377102049067616,-2.11,0.43,11.72,0.04,0.01,0
197872.788,411001925,290252066,75.15,0.02200000174343586,-0.01100000087171793,0,0.000767423480283469,0.00023494713241234422,-0.000529687968082726,0.02291165664792061,0.09687266498804092,-9.697824478149414,0,0,0,-1.7886639833450317,-0.8633255362510681,-0.40817826986312866,0.0035300629679113626,0.005715480539947748,-0.0019008966628462076,-2.11,0.43,11.73,0.04,0.01,0
197972.788,411001925,290252066,75.15,0.020000001415610313,-0.007000000216066837,0,-0.0005887805600650609,-0.0006210893043316901,-0.00010154584015253931,0.023596063256263733,0.09821803867816925,-9.69467544555664,0,0,0,-1.7883220911026,-0.8590869307518005,-0.40756553411483765,0.005422304384410381,0.00696820393204689,-0.002234301995486021,-2.11,0.43,11.73,0.04,0.01,0
198072.788,411001925,290252066,75.15,0.020000001415610313,-0.007000000216066837,0,0.0018701116787269711,0.00008907833398552609,0.001104608061723411,0.022549211978912354,0.08281402289867401,-9.716105461120605,0,0,0,-1.7875796556472778,-0.856245756149292,-0.40759652853012085,0.0071150739677250385,0.006978918332606554,-0.0034010326489806175,-2.11,0.43,11.73,0.04,0.01,0
198172.788,411001925,290252067,75.16,0.08900000154972076,-0.036000002175569534,0,0.0008234392153099179,0.0005083448486402631,-0.0005163038149476051,0.008440496399998665,0.0916908010840416,-9.684033393859863,0,0,0,-1.7882124185562134,-0.852030873298645,-0.4086359143257141,0.007656184956431389,0.007962200790643692,-0.0031851015519350767,-2.11,0.43,11.73,0.04,0.01,0
198272.788,411001925,290252067,75.16,0.08900000154972076,-0.036000002175569534,0,0.0013848295202478766,-0.00047407933743670583,-0.0018137248698621988,0.02453404851257801,0.09110899269580841,-9.700421333312988,0,0,0,-1.7882869243621826,-0.8488162755966187,-0.41070955991744995,0.008800418116152287,0.008811150677502155,-0.003461770946159959,-2.11,0.42,11.73,0.04,0.01,0
198372.788,411001925,290252068,75.18,0.04400000348687172,-0.052000001072883606,0,0.0008631704258732498,0.0000536697480129078,-0.0000635216201771982,0.01757838949561119,0.09323283284902573,-9.693456649780273,0,0,0,-1.7849408388137817,-0.8435537219047546,-0.41378408670425415,0.012165527790784836,0.010749729350209236,-0.004700044635683298,-2.11,0.42,11.72,0.04,0.01,0
198472.788,411001925,290252068,75.18,0.04400000348687172,-0.052000001072883606,0,0.0007481981883756816,0.0004630831244867295,-0.002053913427516818,0.022350670769810677,0.08511044085025787,-9.696151733398438,0,0,0,-1.7816964387893677,-0.8393848538398743,-0.41600388288497925,0.015000165440142155,0.012191214598715305,-0.005611272528767586,-2.11,0.41,11.72,0.04,0.01,0
198572.788,411001924,290252067,75.2,0.01600000075995922,-0.01100000087171793,0,0.0009709720034152269,-0.00007297177944565192,0.00018490127695258707,0.020577939227223396,0.08244196325540543,-9.707694053649902,0,0,0,-1.7836804389953613,-0.8361347913742065,-0.41963428258895874,0.014497680589556694,0.01174605917185545,-0.006982274819165468,-2.11,0.41,11.72,0.04,0.01,0
198672.788,411001924,290252067,75.2,0.01600000075995922,-0.01100000087171793,0,0.0022801505401730537,-0.0013555610785260797,-0.0005384605610743165,0.02615414373576641,0.08652143180370331,-9.678380012512207,0,0,0,-1.7843730449676514,-0.8338619470596313,-0.4231734871864319,0.01456350926309824,0.011208133772015572,-0.007681326009333134,-2.11,0.41,11.72,0.04,0.01,0
198772.788,411001924,290252067,75.2,0.02500000037252903,-0.005000000353902578,0,0.0014769104309380054,-0.0016068833647295835,-0.0004910402931272984,0.013240277767181396,0.09547745436429977,-9.689552307128906,0,0,0,-1.7873942852020264,-0.8312206864356995,-0.42751485109329224,0.013030736707150936,0.010787367820739746,-0.008980204351246357,-2.11,0.42,11.72,0.04,0.01,0
198872.788,411001924,290252067,75.2,0.02500000037252903,-0.005000000353902578,0,-0.000012483277714636642,-0.0005969002959318459,-0.0015172529965639114,0.02971593476831913,0.08940394222736359,-9.711841583251953,0,0,0,-1.789340615272522,-0.8292009234428406,-0.4321940541267395,0.012269933708012104,0.01045822910964489,-0.011005334556102753,-2.11,0.42,11.71,0.04,0.01,0
198972.788,411001923,290252067,75.2,0.039000000804662704,0.014000000432133675,0,-0.0011132343206554651,0.0005438282969407737,-0.0015615717275068164,0.02375376783311367,0.09296853095293045,-9.681241989135742,0,0,0,-1.7927310466766357,-0.8284235000610352,-0.4358401894569397,0.01118919812142849,0.008794410154223442,-0.0118486937135458,-2.11,0.42,11.71,0.04,0.01,0
199072.788,411001923,290252067,75.2,0.039000000804662704,0.014000000432133675,0,-0.0005944139556959274,0.0012777699157595634,-0.0004946916596964002,0.008647767826914787,0.09276063740253448,-9.688338279724121,0,0,0,-1.794943928718567,-0.8279291987419128,-0.43797165155410767,0.010186022147536278,0.00806004274636507,-0.012483663856983185,-2.11,0.42,11.7,0.04,0.01,0
199172.788,411001923,290252066,75.23,0.04000000283122063,0.003000000026077032,0,0.0031928604003041983,0.0009264395921491086,-0.0012939630541950464,0.021562296897172928,0.08647879213094711,-9.695091247558594,0,0,0,-1.79607355594635,-0.8261210322380066,-0.4389001727104187,0.010664149187505245,0.007678151596337557,-0.011933858506381512,-2.11,0.42,11.7,0.04,0.01,0
199272.788,411001923,290252066,75.23,0.04000000283122063,0.003000000026077032,0,0.0016092974692583084,0.00008132063521770782,-0.001312140841037035,0.009476257488131523,0.0765126645565033,-9.677916526794434,0,0,0,-1.7964311838150024,-0.824788510799408,-0.43880361318588257,0.010965983383357525,0.006828539539128542,-0.010821398347616196,-2.11,0.42,11.69,0.04,0.01,0
199372.788,411001923,290252066,75.24,0.005000000353902578,-0.012000000104308128,0,-0.0012348350137472153,-0.00007431099220411874,-0.001541266916319728,0.0353226438164711,0.0908859446644783,-9.692343711853027,0,0,0,-1.7968477010726929,-0.8249958753585815,-0.4391933083534241,0.012558892369270325,0.005637107416987419,-0.011000683531165123,-2.11,0.41,11.69,0.04,0.01,0
199472.788,411001923,290252066,75.24,0.005000000353902578,-0.012000000104308128,0,0.0011290611000731587,-0.0005219399463385344,0.00025142019148916006,0.0265610720962286,0.09567633271217346,-9.693160057067871,0,0,0,-1.7968428134918213,-0.825150728225708,-0.4405352473258972,0.013351348228752613,0.004583783447742462,-0.011669791303575039,-2.11,0.41,11.69,0.04,0.01,0
199572.788,411001923,290252066,75.25,0.02500000037252903,-0.01900000125169754,0,0.00021778116934001446,-0.0018688689451664686,-0.00001860093470895663,0.0170779749751091,0.08833754062652588,-9.686460494995117,0,0,0,-1.7979860305786133,-0.8244995474815369,-0.44276589155197144,0.014260335825383663,0.0039566513150930405,-0.011613580398261547,-2.12,0.41,11.69,0.04,0.01,0
199672.788,411001923,290252066,75.25,0.02500000037252903,-0.01900000125169754,0,-0.0003760041145142168,-0.00023599056294187903,0.00015318112855311483,0.02007054165005684,0.09269240498542786,-9.699681282043457,0,0,0,-1.7987303733825684,-0.8238810300827026,-0.44565826654434204,0.014243900775909424,0.0035639069974422455,-0.012398588471114635,-2.12,0.4,11.69,0.04,0.01,0
199772.788,411001923,290252066,75.28,0.030000001192092896,-0.04500000178813934,0,0.0020591893699020147,-0.0005886636790819466,0.00018660891510080546,0.018885325640439987,0.082600899040699,-9.695627212524414,0,0,0,-1.8017364740371704,-0.8222149014472961,-0.44860559701919556,0.013345818966627121,0.004073077347129583,-0.013993159867823124,-2.11,0.4,11.69,0.04,0.01,0
199872.788,411001923,290252066,75.28,0.030000001192092896,-0.04500000178813934,0,0.00041082693496719003,0.0015854841331019998,-0.0011540945852175355,0.023716136813163757,0.08067052811384201,-9.69106674194336,0,0,0,-1.803641676902771,-0.8207128047943115,-0.4524974226951599,0.013135811313986778,0.004420123994350433,-0.014074358157813549,-2.11,0.41,11.68,0.04,0.01,0
199972.788,411001922,290252066,75.29,0.03200000151991844,0.0020000000949949026,0,0.0021220804192125797,-0.00023081818653736264,0.00007055141031742096,0.020889384672045708,0.08334092050790787,-9.685090065002441,0,0,0,-1.805139422416687,-0.8180555701255798,-0.45616549253463745,0.01343926414847374,0.00568944588303566,-0.014844910241663456,-2.11,0.4,11.68,0.04,0.01,0
200072.788,411001922,290252066,75.29,0.03200000151991844,0.0020000000949949026,0,0.001474865130148828,0.00004972322130925022,0.0001277877454413101,0.01606295257806778,0.08465547859668732,-9.699296951293945,0,0,0,-1.8061456680297852,-0.8160849213600159,-0.45892924070358276,0.013894588686525822,0.006412514951080084,-0.016500215977430344,-2.11,0.4,11.68,0.04,0.01,0
200172.788,411001921,290252065,75.3,0.021000001579523087,-0.024000000208616257,0,0.00023338331084232777,-0.00009451724326936528,0.0011243162443861357,0.013247872702777382,0.09393317997455597,-9.690332412719727,0,0,0,-1.8092416524887085,-0.8155079483985901,-0.4605829119682312,0.012999854981899261,0.005749958101660013,-0.016753682866692543,-2.11,0.41,11.67,0.04,0.01,0
200272.788,411001921,290252065,75.3,0.021000001579523087,-0.024000000208616257,0,0.0009051037486642599,0.002073661657050252,-0.00003636087785707787,0.019238853827118874,0.08311998099088669,-9.677653312683105,0,0,0,-1.811569333076477,-0.8150680065155029,-0.46141499280929565,0.012574058026075363,0.005095350556075573,-0.016827253624796867,-2.11,0.41,11.67,0.04,0.01,0
200372.788,411001921,290252064,75.32,0.039000000804662704,-0.024000000208616257,0,0.0016237914096564054,0.0008231506799347699,-0.00025713458308018744,0.03297143429517746,0.0851864218711853,-9.678914070129395,0,0,0,-1.815719485282898,-0.8145624995231628,-0.46165651082992554,0.01150130107998848,0.004095963202416897,-0.01656165160238743,-2.11,0.41,11.67,0.04,0.01,0
200472.788,411001921,290252064,75.32,0.039000000804662704,-0.024000000208616257,0,0.00033763618557713926,-0.0017640405567362902,-0.0021134319249540567,0.01714017428457737,0.09013984352350235,-9.695378303527832,0,0,0,-1.819675326347351,-0.8146780133247375,-0.46179765462875366,0.010095818899571896,0.003185930661857128,-0.016186075285077095,-2.11,0.41,11.66,0.04,0.01,0
200572.788,411001920,290252064,75.33,0.04400000348687172,0.0030000000260770356,0,0.00099411781411618,0.001464761677198112,-0.0013323884923011065,0.018479134887456894,0.09915073961019516,-9.705343246459961,0,0,0,-1.824201226234436,-0.815950334072113,-0.4631299376487732,0.008383534848690033,0.0019387038191780448,-0.016688529402017593,-2.11,0.42,11.66,0.04,0.01,0
200672.788,411001920,290252064,75.33,0.04400000348687172,0.0030000000260770356,0,0.0013253678334876895,0.0003384196315892041,-0.0007807087968103588,0.031131526455283165,0.08438179641962051,-9.6978120803833,0,0,0,-1.828095555305481,-0.8162948489189148,-0.463267982006073,0.007097258232533932,0.0017796638421714306,-0.016955314204096794,-2.11,0.42,11.66,0.04,0.01,0
200772.788,411001919,290252064,75.34,0.026000000536441803,0,0,0.0011005894048139453,0.0022165330592542887,-0.0014412521850317714,0.02268293686211109,0.09218448400497437,-9.683846473693848,0,0,0,-1.8328486680984497,-0.8146448135375977,-0.46220868825912476,0.005664277821779251,0.00259226281195879,-0.015793006867170334,-2.11,0.43,11.66,0.04,0.01,0
200872.788,411001919,290252064,75.34,0.026000000536441803,0,0,0.0006304427515715361,0.0016385104972869158,-0.0018942448077723384,0.011693836189806461,0.0889359638094902,-9.692442893981934,0,0,0,-1.8368173837661743,-0.8129390478134155,-0.4608260989189148,0.004163653124123812,0.0034137198235839605,-0.016099782660603523,-2.1,0.43,11.65,0.04,0.01,0
200972.788,411001919,290252064,75.35,0.032999999821186066,-0.004000000189989805,0,0.0020850899163633585,-0.0008851579041220248,0.000046145989472279325,0.02730855718255043,0.0976390540599823,-9.703176498413086,0,0,0,-1.8412995338439941,-0.8105649948120117,-0.45874208211898804,0.002787673845887184,0.004981735721230507,-0.016044985502958298,-2.1,0.43,11.65,0.04,0.01,0
201072.788,411001919,290252064,75.35,0.032999999821186066,-0.004000000189989805,0,0.0012385807931423187,0.0009363809949718416,-0.0002899866085499525,0.020421374589204788,0.09135139733552933,-9.694905281066895,0,0,0,-1.8443635702133179,-0.8085238337516785,-0.4579593539237976,0.0022460350301116705,0.006144723389297724,-0.016009006649255753,-2.1,0.43,11.65,0.04,0.01,0
201172.788,411001919,290252064,75.37,0.03400000184774399,-0.015000000596046448,0,0.0017206048360094428,-0.00046587406541220844,-0.0008579111890867352,0.016903582960367203,0.09204355627298355,-9.703428268432617,0,0,0,-1.8461765050888062,-0.8064461350440979,-0.4572557806968689,0.00250804889947176,0.007286902982741594,-0.015534128062427044,-2.1,0.42,11.64,0.04,0.01,0
201272.788,411001919,290252064,75.37,0.03400000184774399,-0.015000000596046448,0,0.0011758441105484962,-0.0007071317522786558,-0.0013590838061645627,0.017311841249465942,0.10553690791130066,-9.70041275024414,0,0,0,-1.8476088047027588,-0.8048369884490967,-0.4571705460548401,0.003205199260264635,0.008209062740206718,-0.014815445989370346,-2.1,0.42,11.64,0.04,0.01,0
201372.788,411001918,290252064,75.38,0.03700000047683716,0.01900000125169754,0,0.0007493107113987207,-0.0003990402037743479,-0.00017222925089299668,0.02965928427875042,0.08786702156066895,-9.693227767944336,0,0,0,-1.8511391878128052,-0.8046576976776123,-0.4571017622947693,0.0026750010438263416,0.007637054659426212,-0.015882927924394608,-2.1,0.42,11.63,0.04,0.01,0
201472.788,411001918,290252064,75.38,0.03700000047683716,0.01900000125169754,0,0.002728781197220087,0.0010338416323065758,-0.001080658403225243,0.022569745779037476,0.0996331050992012,-9.690780639648438,0,0,0,-1.854414701461792,-0.8040366172790527,-0.45671790838241577,0.0022906267549842596,0.008122345432639122,-0.014644763432443142,-2.1,0.42,11.63,0.04,0.01,0
201572.788,411001917,290252064,75.39,0.030000001192092896,-0.08900000154972076,0,0.0016304575838148594,0.00031869360827840865,0.00013183383271098131,0.014413607306778431,0.069070965051651,-9.676321983337402,0,0,0,-1.8579564094543457,-0.8020603656768799,-0.4572497010231018,0.0016325535252690315,0.0083419568836689,-0.014040527865290642,-2.1,0.42,11.63,0.04,0.01,0
201672.788,411001917,290252064,75.39,0.030000001192092896,-0.08900000154972076,0,-0.00019884371431544423,0.0001861838682089001,-0.0013784662587568164,0.026881631463766098,0.08540651202201843,-9.706703186035156,0,0,0,-1.8608291149139404,-0.8005489706993103,-0.4577299952507019,0.0012266315752640367,0.008642110042273998,-0.014462858438491821,-2.09,0.42,11.63,0.04,0.01,0
201772.788,0,0,0,0,0,0,0.0005112827639095485,0.0010762104066088793,-0.002496877685189247,0.016115281730890274,0.08594006299972534,-9.675034523010254,0,0,0,-1.8654919862747192,-0.8001604080200195,-0.4604324698448181,0.00016355425759684294,0.00852314755320549,-0.015821736305952072,-2.1,0.43,11.63,0.04,0.01,0
201872.788,0,0,0,0,0,0,0,-2.168404344971009e-19,0,0,0,0,0,0,0,-2.220446049250313e-16,0,-5.551115123125783e-17,0,0,0,0,5.551115123125783e-17,0,0,0,0
201972.788,0,0,0,0,0,0,0,-2.168404344971009e-19,0,0,0,0,0,0,0,-2.220446049250313e-16,0,-5.551115123125783e-17,0,0,0,0,5.551115123125783e-17,0,0,0,0
202072.788,0,0,0,0,0,0,0,-2.168404344971009e-19,0,0,0,0,0,0,0,-2.220446049250313e-16,0,-5.551115123125783e-17,0,0,0,0,5.551115123125783e-17,0,0,0,0
202172.788,0,0,0,0,0,0,0,-2.168404344971009e-19,0,0,0,0,0,0,0,-2.220446049250313e-16,0,-5.551115123125783e-17,0,0,0,0,5.551115123125783e-17,0,0,0,0
202272.788,0,0,0,0,0,0,0,-2.168404344971009e-19,0,0,0,0,0,0,0,-2.220446049250313e-16,0,-5.551115123125783e-17,0,0,0,0,5.551115123125783e-17,0,0,0,0
202372.788,0,0,0,0,0,0,0,-2.168404344971009e-19,0,0,0,0,0,0,0,-2.220446049250313e-16,0,-5.551115123125783e-17,0,0,0,0,5.551115123125783e-17,0,0,0,0
202472.788,0,0,0,0,0,0,0,-2.168404344971009e-19,0,0,0,0,0,0,0,-2.220446049250313e-16,0,-5.551115123125783e-17,0,0,0,0,5.551115123125783e-17,0,0,0,0
202572.788,0,0,0,0,0,0,0,-2.168404344971009e-19,0,0,0,0,0,0,0,-2.220446049250313e-16,0,-5.551115123125783e-17,0,0,0,0,5.551115123125783e-17,0,0,0,0
202672.788,0,0,0,0,0,0,0,-2.168404344971009e-19,0,0,0,0,0,0,0,-2.220446049250313e-16,0,-5.551115123125783e-17,0,0,0,0,5.551115123125783e-17,0,0,0,0
202772.788,0,0,0,0,0,0,0,-2.168404344971009e-19,0,0,0,0,0,0,0,-2.220446049250313e-16,0,-5.551115123125783e-17,0,0,0,0,5.551115123125783e-17,0,0,0,0
202872.788,0,0,0,0,0,0,0,-2.168404344971009e-19,0,0,0,0,0,0,0,-2.220446049250313e-16,0,-5.551115123125783e-17,0,0,0,0,5.551115123125783e-17,0,0,0,0
202972.788,0,0,0,0,0,0,0,-2.168404344971009e-19,0,0,0,0,0,0,0,-2.220446049250313e-16,0,-5.551115123125783e-17,0,0,0,0,5.551115123125783e-17,0,0,0,0
203072.788,0,0,0,0,0,0,0,-2.168404344971009e-19,0,0,0,0,0,0,0,-2.220446049250313e-16,0,-5.551115123125783e-17,0,0,0,0,5.551115123125783e-17,0,0,0,0
203172.788,0,0,0,0,0,0,0,-2.168404344971009e-19,0,0,0,0,0,0,0,-2.220446049250313e-16,0,-5.551115123125783e-17,0,0,0,0,5.551115123125783e-17,0,0,0,0
203272.788,0,0,0,0,0,0,0,-2.168404344971009e-19,0,0,0,0,0,0,0,-2.220446049250313e-16,0,-5.551115123125783e-17,0,0,0,0,5.551115123125783e-17,0,0,0,0
203372.788,0,0,0,0,0,0,0,-2.168404344971009e-19,0,0,0,0,0,0,0,-2.220446049250313e-16,0,-5.551115123125783e-17,0,0,0,0,5.551115123125783e-17,0,0,0,0
203472.788,0,0,0,0,0,0,0,-2.168404344971009e-19,0,0,0,0,0,0,0,-2.220446049250313e-16,0,-5.551115123125783e-17,0,0,0,0,5.551115123125783e-17,0,0,0,0
203572.788,0,0,0,0,0,0,0,-2.168404344971009e-19,0,0,0,0,0,0,0,-2.220446049250313e-16,0,-5.551115123125783e-17,0,0,0,0,5.551115123125783e-17,0,0,0,0
203672.788,0,0,0,0,0,0,0,-2.168404344971009e-19,0,0,0,0,0,0,0,-2.220446049250313e-16,0,-5.551115123125783e-17,0,0,0,0,5.551115123125783e-17,0,0,0,0
203772.788,0,0,0,0,0,0,0,-2.168404344971009e-19,0,0,0,0,0,0,0,-2.220446049250313e-16,0,-5.551115123125783e-17,0,0,0,0,5.551115123125783e-17,0,0,0,0
203872.788,0,0,0,0,0,0,0,-2.168404344971009e-19,0,0,0,0,0,0,0,-2.220446049250313e-16,0,-5.551115123125783e-17,0,0,0,0,5.551115123125783e-17,0,0,0,0
203972.788,0,0,0,0,0,0,0,-2.168404344971009e-19,0,0,0,0,0,0,0,-2.220446049250313e-16,0,-5.551115123125783e-17,0,0,0,0,5.551115123125783e-17,0,0,0,0
204072.788,0,0,0,0,0,0,0,-2.168404344971009e-19,0,0,0,0,0,0,0,-2.220446049250313e-16,0,-5.551115123125783e-17,0,0,0,0,5.551115123125783e-17,0,0,0,0
204172.788,0,0,0,0,0,0,0,-2.168404344971009e-19,0,0,0,0,0,0,0,-2.220446049250313e-16,0,-5.551115123125783e-17,0,0,0,0,5.551115123125783e-17,0,0,0,0
204272.788,0,0,0,0,0,0,0,-2.168404344971009e-19,0,0,0,0,0,0,0,-2.220446049250313e-16,0,-5.551115123125783e-17,0,0,0,0,5.551115123125783e-17,0,0,0,0
204372.788,0,0,0,0,0,0,0,-2.168404344971009e-19,0,0,0,0,0,0,0,-2.220446049250313e-16,0,-5.551115123125783e-17,0,0,0,0,5.551115123125783e-17,0,0,0,0
204472.788,0,0,0,0,0,0,0,-2.168404344971009e-19,0,0,0,0,0,0,0,-2.220446049250313e-16,0,-5.551115123125783e-17,0,0,0,0,5.551115123125783e-17,0,0,0,0
204572.788,0,0,0,0,0,0,0,-2.168404344971009e-19,0,0,0,0,0,0,0,-2.220446049250313e-16,0,-5.551115123125783e-17,0,0,0,0,5.551115123125783e-17,0,0,0,0
204672.788,0,0,0,0,0,0,0,-2.168404344971009e-19,0,0,0,0,0,0,0,-2.220446049250313e-16,0,-5.551115123125783e-17,0,0,0,0,5.551115123125783e-17,0,0,0,0
204772.788,0,0,0,0,0,0,0,-2.168404344971009e-19,0,0,0,0,0,0,0,-2.220446049250313e-16,0,-5.551115123125783e-17,0,0,0,0,5.551115123125783e-17,0,0,0,0
204872.788,0,0,0,0,0,0,0,-2.168404344971009e-19,0,0,0,0,0,0,0,-2.220446049250313e-16,0,-5.551115123125783e-17,0,0,0,0,5.551115123125783e-17,0,0,0,0
204972.788,0,0,0,0,0,0,0,-2.168404344971009e-19,0,0,0,0,0,0,0,-2.220446049250313e-16,0,-5.551115123125783e-17,0,0,0,0,5.551115123125783e-17,0,0,0,0
205072.788,0,0,0,0,0,0,0,-2.168404344971009e-19,0,0,0,0,0,0,0,-2.220446049250313e-16,0,-5.551115123125783e-17,0,0,0,0,5.551115123125783e-17,0,0,0,0
205172.788,0,0,0,0,0,0,0,-2.168404344971009e-19,0,0,0,0,0,0,0,-2.220446049250313e-16,0,-5.551115123125783e-17,0,0,0,0,5.551115123125783e-17,0,0,0,0
205272.788,0,0,0,0,0,0,0,-2.168404344971009e-19,0,0,0,0,0,0,0,-2.220446049250313e-16,0,-5.551115123125783e-17,0,0,0,0,5.551115123125783e-17,0,0,0,0
205372.788,0,0,0,0,0,0,0,-2.168404344971009e-19,0,0,0,0,0,0,0,-2.220446049250313e-16,0,-5.551115123125783e-17,0,0,0,0,5.551115123125783e-17,0,0,0,0
205472.788,0,0,0,0,0,0,0,-2.168404344971009e-19,0,0,0,0,0,0,0,-2.220446049250313e-16,0,-5.551115123125783e-17,0,0,0,0,5.551115123125783e-17,0,0,0,0
205572.788,0,0,0,0,0,0,0,-2.168404344971009e-19,0,0,0,0,0,0,0,-2.220446049250313e-16,0,-5.551115123125783e-17,0,0,0,0,5.551115123125783e-17,0,0,0,0
